uid,time,aqi,city_name,lat,lon,pm25,pm10,no2,so2,co,o3,temp_c,humidity_pct,pressure_hpa,wind_speed_mps,aqi_category,month,season,temp_condition
428,2025-09-21 01:00:00,107.0,"Osorno, Chile",-40.58447867,-73.11871982,107.0,37.0,,,,,8.7,93.8,1008.3,0.9,Unhealthy for Sensitive,9,Autumn,Cold
8821,2025-09-21 01:00:00,63.0,"Mirasol, Chile",-41.47950692,-72.96875593,63.0,,,,,,8.0,93.0,1013.0,1.0,Moderate,9,Autumn,Cold
14756,2025-09-21 02:00:00,46.0,"Puerto Varas, Chile",-41.32893509,-72.96820876,46.0,12.0,,,,,8.0,93.0,1013.0,1.0,Good,9,Autumn,Cold
445,2025-09-21 02:00:00,152.0,"Coyhaique, Chile",-45.57996448,-72.06112599,152.0,46.0,,,,,6.0,87.0,1008.0,7.2,Unhealthy,9,Autumn,Cold
10699,2025-09-21 01:00:00,38.0,"Vialidad, Chile",-45.40680023,-72.69625962,38.0,,,,,,6.0,93.0,1009.0,8.2,Good,9,Autumn,Cold
4981,2025-09-21 02:00:00,13.0,"Punta Arenas, Chile",-53.15829549,-70.92149748,13.0,,,,,,4.0,80.0,1004.0,8.2,Good,9,Autumn,Cold
3302,2025-09-21 16:00:00,25.0,Geeveston,-43.17,146.925,25.0,9.0,,,,,3.1,97.2,,9.2,Good,9,Autumn,Cold
8753,2025-09-21 16:00:00,5.0,Mornington,-42.861,147.404,5.0,2.0,,,,,14.9,53.0,992.4,4.1,Good,9,Autumn,Mild
3295,2025-09-21 16:00:00,1.0,Fingal,-41.638,147.967,5.0,1.0,,,,,15.4,56.9,994.7,5.6,Good,9,Autumn,Mild
3294,2025-09-21 15:00:00,1.0,St Helens,-41.32,148.25,5.0,1.0,,,,,15.4,56.9,994.7,5.6,Good,9,Autumn,Mild
3284,2025-09-21 16:00:00,5.0,Hadspen,-41.503,147.067,5.0,2.0,,,,,14.0,56.0,1001.0,7.7,Good,9,Autumn,Mild
3286,2025-09-21 16:00:00,5.0,Perth,-41.578,147.172,5.0,2.0,,,,,13.9,76.8,981.0,9.2,Good,9,Autumn,Mild
8296,2025-09-21 16:00:00,5.0,Devonport,-41.185,146.345,5.0,1.0,,,,,14.0,76.8,1002.0,8.7,Good,9,Autumn,Mild
8298,2025-09-21 16:00:00,42.0,Bream Creek,-42.819,147.817,42.0,10.0,,,,,11.6,85.2,997.3,8.2,Good,9,Autumn,Mild
10724,2025-09-21 16:00:00,25.0,Queenstown,-42.081,145.553,25.0,7.0,,,,,10.4,92.3,1000.9,8.7,Good,9,Autumn,Mild
3298,2025-09-21 15:00:00,13.0,New Norfolk,-42.776,147.054,13.0,1.0,,,,,13.8,68.0,,5.1,Good,9,Autumn,Mild
3281,2025-09-21 16:00:00,5.0,Sheffield,-41.43,146.338,5.0,2.0,,,,,12.4,68.2,969.4,7.2,Good,9,Autumn,Mild
3287,2025-09-21 16:00:00,9.0,George Town,-41.111,146.836,9.0,5.0,,,,,14.1,76.9,1003.0,12.8,Good,9,Autumn,Mild
3278,2025-09-21 16:00:00,13.0,Wynyard,-40.992,145.718,13.0,7.0,,,,,13.4,73.2,1002.1,11.8,Good,9,Autumn,Mild
3300,2025-09-21 16:00:00,5.0,Judbury,-43.01,146.94,5.0,1.0,,,,,12.3,67.2,,4.1,Good,9,Autumn,Mild
3292,2025-09-21 15:00:00,5.0,Scottsdale,-41.162,147.515,5.0,5.0,,,,,13.1,76.2,978.5,7.7,Good,9,Autumn,Mild
3288,2025-09-21 16:00:00,5.0,Exeter,-41.303,146.951,5.0,2.0,,,,,13.0,85.9,,5.6,Good,9,Autumn,Mild
3279,2025-09-21 16:00:00,9.0,Emu River,-41.108,145.883,9.0,3.0,,,,,13.4,73.2,1002.1,11.8,Good,9,Autumn,Mild
9082,2025-09-21 16:00:00,5.0,Oatlands,-42.3,147.372,5.0,1.0,,,,,9.8,78.3,945.6,7.2,Good,9,Autumn,Cold
3299,2025-09-21 16:00:00,5.0,Hobart,-42.855,147.315,5.0,2.0,,,,,14.9,53.0,992.4,4.1,Good,9,Autumn,Mild
3282,2025-09-21 16:00:00,5.0,Deloraine,-41.523,146.658,5.0,4.0,,,,,12.7,57.0,1003.1,6.0,Good,9,Autumn,Mild
3296,2025-09-21 16:00:00,,Campbell Town,-41.928,147.491,5.0,1.0,,,,,13.9,76.8,981.0,9.2,Unknown,9,Autumn,Mild
3291,2025-09-21 16:00:00,25.0,Lilydale,-41.25,147.217,25.0,9.0,,,,,13.0,85.9,,5.6,Good,9,Autumn,Mild
10725,2025-09-21 16:00:00,5.0,Latrobe,-41.238,146.42,5.0,3.0,,,,,14.0,76.8,1002.0,8.7,Good,9,Autumn,Mild
3277,2025-09-21 16:00:00,13.0,Smithton,-40.85,145.133,13.0,6.0,,,,,13.0,83.1,1004.2,12.3,Good,9,Autumn,Mild
9083,2025-09-21 16:00:00,1.0,Triabunna,-42.509,147.913,5.0,1.0,,,,,15.7,58.2,994.6,6.6,Good,9,Autumn,Mild
9096,2025-09-21 18:00:00,32.0,"Woolston, New Zealand",-43.5473746,172.6790455,32.0,22.0,40.1,3.8,13.3,,15.53,50.0,1026.3,4.04,Good,9,Autumn,Mild
9099,2025-09-21 18:00:00,5.0,"Ashburton, New Zealand",-43.9083813,171.7485672,5.0,4.0,,,2.3,,17.719,66.0,1005.9,2.25,Good,9,Autumn,Mild
9100,2025-09-21 18:00:00,,"Geraldine, New Zealand",-44.0911852,171.2437353,18.0,10.0,4.1,1.5,2.3,,17.474,66.0,1005.9,1.311,Unknown,9,Autumn,Mild
9101,2025-09-21 18:00:00,11.0,"Timaru Anzac Square, New Zealand",-44.4041809,171.2487857,11.0,9.0,15.7,1.5,2.3,,15.507,61.381,1003.1,3.25,Good,9,Autumn,Mild
11979,2025-09-21 17:00:00,7.0,"Gore Gore At Main Street, New Zealand",-46.10620889,168.9396792,,7.0,,,,,15.0,55.0,1007.6,4.0,Good,9,Autumn,Mild
11980,2025-09-21 17:00:00,21.0,"Invercargill Invercargill At Pomona Street, New Zealand",-46.43192839,168.3699168,,21.0,,,,,15.0,55.0,1007.6,4.0,Good,9,Autumn,Mild
9098,2025-09-21 18:00:00,5.0,"Rangiora, New Zealand",-43.303356,172.5957246,5.0,3.0,0.6,3.8,13.3,,16.695,59.0,1007.0,2.04,Good,9,Autumn,Mild
9103,2025-09-21 18:00:00,54.0,"Waimate Kennedy, New Zealand",-44.7332907,171.0509586,54.0,26.0,4.1,1.5,2.3,,16.522,47.5,1008.7,4.24,Moderate,9,Autumn,Mild
11969,2025-09-21 17:00:00,30.0,"Blenheim Blenheim Bowling Club, New Zealand",-41.52663988,173.956082,30.0,6.0,,,,,12.7,95.0,1013.3,3.0,Good,9,Autumn,Mild
11970,2025-09-21 17:00:00,72.0,"Tahunanui Nelson At Blackwood St, New Zealand",-41.29511685,173.2423759,72.0,35.0,,,,,12.7,95.0,1013.3,3.0,Moderate,9,Autumn,Mild
14727,2025-09-21 01:00:00,53.0,"21 de mayo 2, Chile",-37.47118229,-72.36146285,53.0,10.0,,,,,11.6,93.2,1013.4,1.8,Moderate,9,Autumn,Mild
423,2025-09-21 02:00:00,13.0,"U.C. Maule, Chile",-35.43572559,-71.61955386,13.0,5.0,,,,,10.5,86.3,993.6,2.5,Good,9,Autumn,Mild
8820,2025-09-21 00:00:00,13.0,"Linares, Chile",-35.83694223,-71.59286585,13.0,,,,,,9.0,93.0,1018.0,2.5,Good,9,Autumn,Cold
14738,2025-09-20 02:00:00,13.0,"Cuncumen , Chile",-31.88927831,-70.62931177,13.0,1.0,,,,,,,,,Good,9,Autumn,Unknown
14749,2025-09-21 01:00:00,26.0,"Laja, Chile",-37.26780314,-72.71069527,21.0,9.0,1.5,1.1,200.4,25.6,11.6,93.0,1013.1,2.5,Good,9,Autumn,Mild
10691,2025-09-21 01:00:00,153.0,"Punteras, Chile",-36.9233296,-73.0361323,153.0,54.0,7.6,0.8,,,12.0,81.0,1017.0,2.5,Unhealthy,9,Autumn,Mild
14737,2025-09-21 02:00:00,38.0,"Cuerpo De Bomberos, Chile",-32.885091,-71.246854,38.0,13.0,8.5,13.1,1.5,3.2,12.0,100.0,1022.0,3.6,Good,9,Autumn,Mild
14743,2025-09-21 02:00:00,64.0,"Hospital el Cobre, Chile",-22.450496,-68.908442,21.0,64.0,,6.6,,,4.0,16.0,1028.0,7.7,Moderate,9,Autumn,Cold
14746,2025-09-21 02:00:00,21.0,"JUNJI, Chile",-36.780632,-73.115657,21.0,10.0,15.0,1.8,4.5,14.5,12.0,81.0,1017.0,2.5,Good,9,Autumn,Mild
438,2025-09-21 02:00:00,17.0,"Quilicura, Chile",-33.34962693,-70.72379261,17.0,10.0,,,,,9.0,100.0,1020.0,1.0,Good,9,Autumn,Cold
4975,2025-09-21 02:00:00,15.0,"Copiapo Sivica, Chile",-27.37032915,-70.32390668,17.0,15.0,,0.1,,,12.0,81.0,1018.0,3.6,Good,9,Autumn,Mild
426,2025-09-21 02:00:00,17.0,"Padre Las Casas II, Chile",-38.76476745,-72.59879568,17.0,11.0,4.0,,4.8,,8.8,100.0,1005.1,0.5,Good,9,Autumn,Cold
10688,2025-09-21 02:00:00,25.0,"Rengo, Chile",-34.39454142,-70.85298154,25.0,13.0,,,,7.3,9.8,94.2,1019.0,9.2,Good,9,Autumn,Cold
10689,2025-09-21 02:00:00,8.0,"San Fernando, Chile",-27.39326772,-70.29861544,25.0,8.0,,,,7.3,12.0,81.0,1018.0,3.6,Good,9,Autumn,Mild
439,2025-09-21 02:00:00,34.0,"Valdivia, Chile",-39.8313161,-73.22851282,34.0,13.0,,,,,8.3,97.2,1008.2,0.8,Good,9,Autumn,Cold
14729,2025-09-21 01:00:00,5.0,"Cauquenes Sivica, Chile",-35.96911508,-72.31681824,5.0,4.0,,,,,9.0,93.0,1018.0,2.5,Good,9,Autumn,Cold
440,2025-09-21 02:00:00,46.0,"Bomberos, Chile",-22.111064,-70.210828,46.0,,,,,,,,,,Good,9,Autumn,Unknown
8819,2025-09-21 00:00:00,46.0,"Alto Hospicio, Chile",-20.29046688,-70.10019243,46.0,,,,,,16.0,72.0,1018.0,2.0,Good,9,Autumn,Mild
14750,2025-09-21 02:00:00,117.0,"Lautaro, Chile",-37.50893799,-72.65609262,117.0,30.0,0.1,1.7,24.7,12.1,10.0,93.0,1017.0,1.5,Unhealthy for Sensitive,9,Autumn,Mild
7923,2025-09-21 01:00:00,21.0,"Liceo Polivalente, Chile",-36.60171321,-72.95852283,21.0,10.0,0.3,0.2,,18.4,11.6,93.0,1013.2,2.3,Good,9,Autumn,Mild
14736,2025-09-21 01:00:00,132.0,"Coronel Norte, Chile",-37.00902134,-73.14909697,132.0,40.0,1.0,1.5,,6.4,10.0,93.0,1017.0,1.5,Unhealthy for Sensitive,9,Autumn,Mild
14740,2025-09-21 01:00:00,14.0,"Eme F, Chile",-28.466423,-71.22155428,13.0,,16.8,3.6,14.2,9.6,,,,,Good,9,Autumn,Unknown
14734,2025-09-21 00:00:00,22.0,"Concón, Chile",-32.924568,-71.515399,13.0,10.0,5.4,4.9,6.0,22.4,12.0,100.0,1022.0,0.5,Good,9,Autumn,Mild
14757,2025-09-21 01:00:00,30.0,"Quintero, Chile",-32.77251645,-71.53530329,13.0,8.0,5.2,3.2,5.8,30.4,12.0,100.0,1022.0,3.6,Good,9,Autumn,Mild
420,2025-09-21 02:00:00,21.0,"Rancagua II, Chile",-34.14388838,-70.73713121,21.0,7.0,,,,,9.8,94.2,1019.0,9.2,Good,9,Autumn,Cold
10694,2025-09-21 02:00:00,76.0,"Balneario Curanilahue, Chile",-37.48513169,-73.33162647,76.0,,,,,,12.0,81.0,1017.0,2.5,Moderate,9,Autumn,Mild
430,2025-09-21 01:00:00,18.0,"Las Condes, Chile",-33.37677352,-70.52332678,13.0,7.0,5.4,,0.4,17.6,9.0,100.0,1020.0,1.0,Good,9,Autumn,Cold
435,2025-09-21 01:00:00,38.0,"Cerro Navia, Chile",-33.43308961,-70.73214787,38.0,10.0,9.8,,9.9,7.3,9.0,100.0,1020.0,1.0,Good,9,Autumn,Cold
437,2025-09-21 02:00:00,17.0,"Talagante, Chile",-33.67375207,-70.95306474,17.0,8.0,,,,,9.0,100.0,1020.0,1.0,Good,9,Autumn,Cold
443,2025-09-20 21:00:00,57.0,"Puren, Chile",-36.61616775,-72.09304056,57.0,17.0,,,,,11.5,93.4,1013.4,3.0,Moderate,9,Autumn,Mild
10700,2025-09-21 00:00:00,14.0,"La Florida 2, Chile",-35.43514189,-71.6782615,5.0,8.0,4.1,2.4,12.9,13.6,10.5,86.3,993.6,2.5,Good,9,Autumn,Mild
422,2025-09-21 01:00:00,38.0,"Curicó, Chile",-34.97492508,-71.23396751,38.0,9.0,,,,,9.1,93.4,1018.9,4.4,Good,9,Autumn,Cold
4976,2025-09-21 02:00:00,21.0,"La Serena, Chile",-29.93300652,-71.26196637,21.0,,,,,,12.0,93.0,1021.0,1.5,Good,9,Autumn,Mild
418,2025-09-21 02:00:00,42.0,"Antofagasta, Chile",-23.61354216,-70.38331568,42.0,26.0,,2.0,,,14.0,82.0,1017.0,4.6,Good,9,Autumn,Mild
372,2025-09-21 02:00:00,70.0,"Santos-Ponta da Praia, São Paulo, Brazil",-23.98129516,-46.30050959,70.0,44.0,24.7,2.1,,0.9,22.6,68.4,1014.3,2.5,Moderate,9,Autumn,Mild
358,2025-09-21 03:00:00,137.0,"Parelheiros, São Paulo, Brazil",-23.77626598,-46.69696108,137.0,63.0,,,10.0,2.1,23.0,60.0,1014.0,2.5,Unhealthy for Sensitive,9,Autumn,Mild
361,2025-09-21 03:00:00,53.0,"Paulínia-Sul, São Paulo, Brazil",-22.78020895,-47.1390365,53.0,24.0,6.9,1.6,,18.3,22.0,60.0,1013.0,1.5,Moderate,9,Autumn,Mild
12648,2025-09-21 02:30:00,17.0,"Enseada do Suá, Espírito Santo, Brazil",-20.3133,-40.29069,,,0.44,34.41,0.89,16.89,22.0,88.0,1015.0,4.6,Good,9,Autumn,Mild
339,2025-09-19 10:00:00,58.0,"Cubatão-Centro, São Paulo, Brazil",-23.87902673,-46.41848336,57.0,58.0,31.1,3.6,,10.2,22.0,70.6,1020.9,3.6,Moderate,9,Autumn,Mild
353,2025-09-21 03:00:00,40.0,"Marília, São Paulo, Brazil",-22.19980949,-49.95996975,,40.0,5.1,,,35.0,30.0,42.0,1012.0,2.0,Good,9,Autumn,Hot
365,2025-09-21 02:00:00,63.0,"Ribeirão Preto, São Paulo, Brazil",-21.17706594,-47.81898767,63.0,34.0,5.5,,1.0,26.0,22.0,64.0,1012.0,2.0,Moderate,9,Autumn,Mild
8400,2025-09-14 23:00:00,,"Cordoba, Buenos Aires, Argentina",-34.5995674,-58.3915767,,22.0,6.9,,6.6,,17.5,76.6,1018.4,,Unknown,9,Autumn,Mild
341,2025-09-21 03:00:00,83.0,"Cubatão-Vila Parisi, São Paulo, Brazil",-23.84941617,-46.38867624,,83.0,27.0,1.1,,,22.2,69.0,1013.7,2.7,Moderate,9,Autumn,Mild
8514,2025-09-21 03:00:00,24.0,"S.José Campos, São Paulo, Brazil",-23.18788733,-45.87119762,,15.0,1.4,0.6,,23.6,20.0,72.0,1014.0,3.0,Good,9,Autumn,Mild
355,2025-09-21 03:00:00,119.0,"Mooca, São Paulo, Brazil",-23.54973405,-46.60041665,119.0,,,,4.6,24.4,22.2,69.0,1013.7,2.7,Unhealthy for Sensitive,9,Autumn,Mild
363,2025-09-21 03:00:00,87.0,"Piracicaba, São Paulo, Brazil",-22.70122234,-47.64965269,87.0,57.0,,,,22.8,22.0,60.0,1013.0,1.5,Moderate,9,Autumn,Mild
378,2025-09-21 02:00:00,60.0,"Tatuí, São Paulo, Brazil",-23.36075154,-47.87079907,,60.0,12.8,,,17.9,24.8,47.8,1018.0,0.4,Moderate,9,Autumn,Mild
331,2025-09-21 03:00:00,57.0,"Araraquara, São Paulo, Brazil",-21.78252215,-48.18583181,,57.0,6.4,,,28.5,22.0,64.0,1012.0,2.0,Moderate,9,Autumn,Mild
340,2025-09-21 02:00:00,52.0,"Cubatão-Vale do Mogi, São Paulo, Brazil",-23.83158901,-46.36956879,,52.0,25.6,1.1,,1.3,22.2,69.0,1013.8,3.0,Moderate,9,Autumn,Mild
330,2025-09-21 02:00:00,52.0,"Araçatuba, São Paulo, Brazil",-21.1868411,-50.43931685,,52.0,,,,22.8,24.0,57.0,1011.0,2.5,Moderate,9,Autumn,Mild
374,2025-09-21 02:00:00,87.0,"São José do Rio Preto, São Paulo, Brazil",-20.78468928,-49.39827779,87.0,62.0,8.7,,,17.9,26.0,47.0,1012.0,2.0,Moderate,9,Autumn,Hot
14045,2025-09-21 02:00:00,38.0,"São Sebastião, São Paulo, Brazil",-23.80522561,-45.4000525,38.0,20.0,,,,4.9,23.0,60.0,1015.5,2.5,Good,9,Autumn,Mild
8399,2025-09-14 23:00:00,,"Centenario, Buenos Aires, Argentina",-34.635582,-58.5518647,,16.0,10.1,,4.3,,17.0,72.0,1019.0,3.0,Unknown,9,Autumn,Mild
352,2025-09-21 02:00:00,149.0,"Marg.Tietê-Ponte dos Remédios, São Paulo, Brazil",-23.51870583,-46.74332004,149.0,69.0,38.4,2.1,8.2,,22.7,64.0,1019.6,0.2,Unhealthy for Sensitive,9,Autumn,Mild
10701,2025-09-21 03:00:00,93.0,"Limeira, São Paulo, Brazil",-22.56360378,-47.41431403,93.0,55.0,20.6,,,9.4,22.0,60.0,1013.0,1.5,Moderate,9,Autumn,Mild
364,2025-09-21 02:00:00,50.0,"Presidente Prudente, São Paulo, Brazil",-22.11993674,-51.40877707,50.0,18.0,3.2,,,34.2,27.0,50.0,1010.0,4.1,Good,9,Autumn,Hot
8398,2025-09-14 23:00:00,,"La boca, Buenos Aires, Argentina",-34.6344961,-58.3631337,,18.0,14.2,,2.7,,17.5,76.6,1018.4,,Unknown,9,Autumn,Mild
10703,2025-09-21 03:00:00,55.0,"Taubaté, São Paulo, Brazil",-23.03235096,-45.57580503,55.0,20.0,6.0,,,17.9,17.7,84.0,1015.6,1.0,Moderate,9,Autumn,Mild
376,2025-09-21 03:00:00,79.0,"Sorocaba, São Paulo, Brazil",-23.50242658,-47.47902991,,79.0,18.3,,,9.0,24.4,49.6,1018.0,0.6,Moderate,9,Autumn,Mild
332,2025-09-21 02:00:00,68.0,"Bauru, São Paulo, Brazil",-22.3266084,-49.09275931,68.0,50.0,9.2,,,21.6,30.0,40.0,1012.0,1.5,Moderate,9,Autumn,Hot
8515,2025-09-21 03:00:00,46.0,"S.José Campos-Jd.Satélite, São Paulo, Brazil",-23.22364548,-45.8908,46.0,18.0,5.5,,1.0,23.6,20.0,72.0,1014.0,3.0,Good,9,Autumn,Mild
12508,2025-09-21 03:00:00,17.0,"Guaratinguetá, São Paulo, Brazil",-22.80191714,-45.19112236,5.0,,5.1,,,16.7,17.7,84.0,1015.6,1.0,Good,9,Autumn,Mild
351,2025-09-21 02:00:00,142.0,"Jundiaí, São Paulo, Brazil",-23.19200374,-46.89709727,142.0,39.0,16.0,,,19.1,22.0,60.0,1013.0,1.5,Unhealthy for Sensitive,9,Autumn,Mild
8517,2025-09-21 02:00:00,7.0,"Campinas-Taquaral, São Paulo, Brazil",-22.87461895,-47.05897276,,7.0,17.9,,,8.6,22.0,60.0,1013.0,2.0,Good,9,Autumn,Mild
336,2025-09-21 02:00:00,73.0,"Catanduva, São Paulo, Brazil",-21.14194276,-48.98307527,,73.0,6.9,,,22.8,26.0,47.0,1012.0,2.0,Moderate,9,Autumn,Hot
12721,2025-09-21 02:30:00,17.0,"Vila Capixaba, Espírito Santo, Brazil",-20.34201,-40.40218,,,1.21,14.45,2.82,16.71,22.0,88.0,1015.0,4.6,Good,9,Autumn,Mild
11409,2025-09-21 08:00:00,32.0,"Table View-NAQI, City of Cape Town, South Africa",-33.819667,18.514333,32.0,13.0,3.5,1.8,,10.6,15.5,73.5,1014.8,4.5,Good,9,Autumn,Mild
10776,2025-09-21 08:00:00,51.0,"Vanderbijlpark-NAQI, Sedibeng, South Africa",-26.688504,27.816736,51.0,25.0,1.9,3.2,,33.1,18.0,63.0,1029.0,2.5,Moderate,9,Autumn,Mild
14055,2025-09-21 08:00:00,65.0,"Eskom-Marapong, Waterberg, South Africa",-23.656028,27.627997,65.0,30.0,1.9,0.5,,14.5,17.1,80.9,926.6,1.0,Moderate,9,Autumn,Mild
14052,2025-09-19 00:00:00,54.0,"Eskom-Komati, Nkangala, South Africa",-26.097418,29.450599,,54.0,6.4,3.9,,28.6,8.6,53.5,1025.1,0.5,Moderate,9,Autumn,Cold
14053,2025-09-21 08:00:00,87.0,"Eskom-Kriel Village, Nkangala, South Africa",-26.251223,29.256391,87.0,59.0,4.0,4.8,,8.5,15.5,81.6,1029.0,2.3,Moderate,9,Autumn,Mild
14858,2025-09-21 08:00:00,70.0,"Damonsville, Bojanala Platinum, South Africa",-25.625702,27.851825,70.0,33.0,3.7,0.2,,,19.0,63.0,1026.0,3.0,Moderate,9,Autumn,Mild
14047,2025-09-21 08:00:00,19.0,"Eskom-Majuba, Gert Sibande, South Africa",-27.112752,29.800233,,,,1.1,,18.7,15.1,85.4,1031.5,1.0,Good,9,Autumn,Mild
12577,2025-09-21 08:00:00,62.0,"North West University Vaal campus, Sedibeng, South Africa",-26.724689,27.884772,55.0,15.0,9.9,0.1,62.1,,18.0,63.0,1029.0,2.5,Moderate,9,Autumn,Mild
11833,2025-09-21 08:00:00,78.0,"Orange Farm, City of Johannesburg, South Africa",-26.479639,27.867111,78.0,24.0,,0.2,,6.9,18.0,63.0,1029.0,2.5,Moderate,9,Autumn,Mild
14070,2025-09-17 15:00:00,12.0,"Wallacedene-NAQI, City of Cape Town, South Africa",-33.857194,18.725778,21.0,12.0,3.3,,,11.9,15.0,58.0,1020.0,4.1,Good,9,Autumn,Mild
14072,2025-09-21 08:00:00,63.0,"Bellville South-NAQI, City of Cape Town, South Africa",-33.9155,18.643556,63.0,32.0,9.6,0.9,,,14.0,82.0,1015.0,4.1,Moderate,9,Autumn,Mild
14068,2025-09-21 08:00:00,1.0,"Saldanha IDZ, West Coast, South Africa",-32.98312,17.98497,,,,1.0,,,12.0,93.0,1014.0,2.0,Good,9,Autumn,Mild
14054,2025-09-20 16:00:00,57.0,"Eskom-Kwazamokuhle, Nkangala, South Africa",-26.138269,29.7389005,57.0,49.0,3.9,8.6,,24.9,25.0,55.0,1028.2,3.0,Moderate,9,Autumn,Hot
14934,2025-09-21 08:00:00,63.0,"Good Hope School, Polokwane, South Africa",-23.90677,29.431096,63.0,36.0,,0.5,,,19.0,72.0,1029.0,2.0,Moderate,9,Autumn,Mild
14051,2025-09-21 08:00:00,89.0,"Eskom-Kendal, Nkangala, South Africa",-26.107896,28.974458,89.0,59.0,2.5,2.5,,21.7,15.5,81.6,1029.0,2.3,Moderate,9,Autumn,Mild
14071,2025-09-21 08:00:00,68.0,"eMalahleni -MP Province, Nkangala, South Africa",-25.92225,29.24163,68.0,,,,2.7,28.0,15.5,81.6,1029.0,2.3,Moderate,9,Autumn,Mild
13282,2025-09-21 08:00:00,129.0,"Ivory Park, City of Johannesburg, South Africa",-25.992923,28.203952,129.0,95.0,,4.6,,31.2,17.5,78.6,1042.0,1.2,Unhealthy for Sensitive,9,Autumn,Mild
14860,2025-09-21 08:00:00,1.0,"Davidsonville, City of Johannesburg, South Africa",-26.154186,27.84957,,1.0,,,,,17.9,77.0,1036.8,0.2,Good,9,Autumn,Mild
14066,2025-09-21 08:00:00,104.0,"Ratanang, Alfred Nzo, South Africa",-25.48350779,27.16753925,104.0,54.0,,1.4,,,13.3,88.9,892.2,2.0,Unhealthy for Sensitive,9,Autumn,Mild
14937,2025-09-21 08:00:00,19.0,"4B Decline, Swartklip, South Africa",-24.966431,27.125312,,19.0,,0.7,,,13.9,78.9,899.7,1.0,Good,9,Autumn,Mild
14932,2025-09-21 07:00:00,62.0,"ES_Motherwell, Alfred Nzo, South Africa",-33.789662,25.618592,62.0,18.0,2.5,1.1,5.8,10.0,16.0,72.0,1018.0,1.0,Moderate,9,Autumn,Mild
14073,2025-09-21 08:00:00,99.0,"Eskom-Sivukile, Gert Sibande, South Africa",-26.741956,29.608826,99.0,53.0,5.5,3.7,,4.5,15.1,85.4,1031.5,1.0,Moderate,9,Autumn,Mild
11576,2025-09-21 08:00:00,33.0,"Worcester-NAQI, Cape Winelands, South Africa",-33.627489,19.468318,33.0,15.0,3.3,,1.4,8.4,13.0,88.5,1014.2,1.5,Good,9,Autumn,Mild
14069,2025-09-21 08:00:00,42.0,"Goodwood-NAQI, City of Cape Town, South Africa",-33.9025,18.565194,42.0,20.0,3.5,0.5,,,14.0,82.0,1015.0,4.1,Good,9,Autumn,Mild
13280,2025-09-21 08:00:00,155.0,"Mamelodi, City of Tshwane, South Africa",-25.716444,28.336667,155.0,54.0,2.0,1.4,13.2,11.2,19.0,63.0,1026.0,3.0,Unhealthy,9,Autumn,Mild
11713,2025-09-21 08:00:00,54.0,"Mafikeng-NAQI, Ngaka Modiri Molema, South Africa",-25.835814,25.614534,54.0,21.0,1.7,6.1,,,20.0,64.0,1025.0,7.7,Moderate,9,Autumn,Mild
11785,2025-09-21 08:00:00,33.0,"Eskom-Elandsfontein-NAQI, Gert Sibande, South Africa",-26.245481,29.417328,,33.0,1.1,,1.3,14.6,15.5,81.6,1029.0,2.3,Good,9,Autumn,Mild
14059,2025-09-21 08:00:00,14.0,"Hermanus, Overberg, South Africa",-34.213,19.213,,895.0,1.1,2.2,13.9,4.5,13.0,88.5,1014.2,1.5,Good,9,Autumn,Mild
10781,2025-09-21 08:00:00,80.0,"Saltworks-NAQI, Nelson Mandela Bay Metro, South Africa",-33.763778,25.683428,70.0,80.0,4.8,3.2,,,16.0,72.0,1018.0,1.0,Moderate,9,Autumn,Mild
11578,2025-09-21 08:00:00,7.0,"Hammanskraal, City of Tshwane, South Africa",-25.38512,28.254542,1.0,1.0,0.1,0.3,5.4,7.1,19.0,63.0,1026.0,3.0,Good,9,Autumn,Mild
11672,2025-09-21 08:00:00,70.0,"Diepsloot, City of Johannesburg, South Africa",-25.921853,28.018873,70.0,42.0,,1.6,,8.7,18.1,76.2,1035.3,1.0,Moderate,9,Autumn,Mild
10783,2025-09-21 08:00:00,11.0,"Karoo-NAQI, Namakwa, South Africa",-31.398641,19.140214,11.0,3.0,0.1,0.7,0.8,,12.8,81.0,1017.2,0.4,Good,9,Autumn,Mild
14050,2025-09-21 08:00:00,114.0,"Eskom-Grootvlei, Gert Sibande, South Africa",-26.764724,28.480081,114.0,17.0,1.5,0.7,,13.7,18.0,63.0,1029.0,2.5,Unhealthy for Sensitive,9,Autumn,Mild
10759,2025-09-21 08:00:00,60.0,"Secunda, Gert Sibande, South Africa",-26.550639,29.079028,60.0,36.0,4.1,1.4,7.9,5.5,15.1,85.4,1031.5,1.0,Moderate,9,Autumn,Mild
5032,2025-09-21 10:00:00,33.0,"Ecole La Marine, Reunion, France",-20.91058333,55.61891667,33.0,13.0,4.6,1.1,,23.7,25.5,63.0,1019.0,7.7,Good,9,Autumn,Hot
8622,2025-09-21 10:00:00,22.0,"Plateau Caillou, Reunion, France",-21.02211111,55.266775,6.0,11.0,2.0,0.8,0.1,22.3,19.3,83.0,1020.7,2.7,Good,9,Autumn,Mild
14060,2025-09-21 08:00:00,58.0,"Hambanathi Tongaat, eThekwini Metro, South Africa",-29.55741944,31.12006389,58.0,22.0,,1.1,,,21.0,68.0,1019.0,5.6,Moderate,9,Autumn,Mild
13273,2025-09-21 08:00:00,0.0,"Brackenham - RBCAA, King Cetshwayo, South Africa",-28.787027,32.021848,,,,0.4,,,21.7,85.2,1013.6,5.1,Good,9,Autumn,Mild
13834,2025-09-21 08:00:00,279.0,"Umkomaas, eThekwini Metro, South Africa",-30.20803,30.78202,279.0,141.0,,1.6,,,21.5,65.2,1019.0,1.7,Very Unhealthy,9,Autumn,Mild
5036,2025-09-21 07:00:00,19.0,"Grand Coude, Reunion, France",-21.29433333,55.62791667,14.0,3.0,1.1,0.5,0.1,18.5,23.0,73.0,1020.0,8.4,Good,9,Autumn,Mild
8760,2025-09-21 10:00:00,0.0,"R D Tamarins St Leu, Reunion, France",-21.22306389,55.30251389,21.0,24.0,9.3,0.5,0.1,24.3,23.0,73.0,1020.0,8.4,Good,9,Autumn,Mild
11716,2025-09-15 08:00:00,68.0,"Steelpoort, Sekhukhune, South Africa",-24.731501,30.134383,68.0,,2.5,10.4,,6.7,22.0,43.4,861.3,,Moderate,9,Autumn,Mild
14062,2025-09-21 08:00:00,78.0,"Eskom-Silobela, Gert Sibande, South Africa",-26.086232,30.110653,78.0,40.0,2.1,0.2,,9.4,11.5,95.5,841.4,3.0,Moderate,9,Autumn,Mild
5034,2025-09-21 10:00:00,26.0,"Ligne Paradis, Reunion, France",-21.31280278,55.474075,4.0,14.0,5.7,0.1,0.1,26.4,23.0,73.0,1020.0,8.4,Good,9,Autumn,Mild
11834,2025-09-21 08:00:00,69.0,"City Hall - Durban-NAQI, eThekwini Metro, South Africa",-29.858283,31.027286,69.0,46.0,,1.5,,,21.5,65.2,1019.0,1.7,Moderate,9,Autumn,Mild
6438,2025-09-21 14:00:00,11.0,Bunbury,-33.3270685,115.6391736,11.0,6.0,,,,,20.9,75.9,1028.2,1.5,Good,9,Autumn,Mild
12491,2025-09-21 14:00:00,3.0,Mandurah,-32.5361,115.7424,3.0,3.0,3.4,,,25.0,22.2,57.1,1027.6,3.6,Good,9,Autumn,Mild
6436,2025-09-21 13:00:00,9.0,Geraldton,-28.7732192,114.6096326,9.0,3.0,,,,,29.0,28.0,1022.0,7.7,Good,9,Autumn,Hot
6440,2025-09-21 14:00:00,4.0,Albany,-35.0238227,117.8847286,4.0,4.0,,,,,16.3,69.9,1021.4,1.5,Good,9,Autumn,Mild
6433,2025-09-21 14:00:00,5.0,Caversham,-31.8757651,115.9660496,5.0,3.0,1.2,,,35.0,25.1,46.1,1024.4,3.0,Good,9,Autumn,Hot
6439,2025-09-21 14:00:00,8.0,Busselton,-33.6499446,115.3446115,8.0,5.0,,,,,20.2,65.8,1026.9,1.5,Good,9,Autumn,Mild
6441,2025-09-21 14:00:00,3.0,Collie,-33.3588705,116.1540412,2.0,3.0,,,,,19.6,67.0,,2.5,Good,9,Autumn,Mild
6437,2025-09-21 14:00:00,5.0,Quinns Rocks,-31.6724164,115.7076161,5.0,4.0,2.3,,,38.0,20.5,74.0,1024.6,7.5,Good,9,Autumn,Mild
6435,2025-09-21 14:00:00,2.0,South Lake,-32.1109198,115.838042,2.0,1.0,3.4,,,35.0,24.2,46.1,1023.9,3.0,Good,9,Autumn,Mild
3274,2025-09-21 16:00:00,24.0,Wagga Wagga Nth South-west Slopes,-35.104407,147.360512,1.0,2.0,0.8,,,23.5,14.0,66.2,991.8,5.1,Good,9,Autumn,Mild
10719,2025-09-21 16:00:00,3.0,Central West LLS Dubbo,-32.2196,148.5777,4.0,3.0,,,,,18.0,46.9,984.5,5.1,Good,9,Autumn,Mild
8009,2025-09-21 16:00:00,5.0,Moe,-38.1864662,146.258331,5.0,3.0,7.5,1.5,1.4,12.8,15.7,55.1,1004.1,10.8,Good,9,Autumn,Mild
3237,2025-09-21 16:00:00,19.0,Dandenong,-37.98576,145.1987,13.0,14.0,4.7,0.8,1.5,19.2,12.2,87.5,1013.1,0.5,Good,9,Autumn,Mild
12389,2025-09-21 16:00:00,4.0,Western LLS Broken Hill,-32.0012,141.4694,4.0,2.0,,,,,20.8,31.1,984.9,5.1,Good,9,Autumn,Mild
12919,2025-09-21 16:00:00,4.0,Central West LLS Parkes,-33.1277,148.2439,4.0,3.0,,,,,17.1,51.1,979.6,4.1,Good,9,Autumn,Mild
12399,2025-09-21 16:00:00,33.0,Blackwater,-23.5627,148.8807,33.0,20.0,,,,,29.1,40.8,990.6,3.1,Good,9,Autumn,Hot
12490,2025-09-21 15:00:00,14.0,"Monash, Canberra",-35.418302,149.094018,,,0.5,,3.7,14.3,14.2,49.9,945.5,6.6,Good,9,Autumn,Mild
12921,2025-09-21 16:00:00,2.0,Riverina LLS Temora,-34.4278,147.5117,7.0,2.0,,,,,15.0,57.2,984.6,5.1,Good,9,Autumn,Mild
3243,2025-09-21 16:00:00,21.0,Melton,-37.7064552,144.5669,10.0,1.0,2.8,0.1,,20.8,16.1,67.2,1012.8,6.6,Good,9,Autumn,Mild
3244,2025-09-21 16:00:00,21.0,Pt. Cook,-37.9263153,144.7567,8.0,8.0,2.8,0.1,,20.8,17.0,52.1,1009.8,7.2,Good,9,Autumn,Mild
13046,2025-09-21 16:00:00,5.0,Bendigo,-36.7784,144.300064,5.0,,,,,,13.4,94.9,989.1,4.6,Good,9,Autumn,Mild
13791,2025-09-18 13:00:00,,SA Murray Darling Basin Lameroo,-35.3778,140.5378,4.0,4.0,,,,,16.9,60.9,1004.7,9.2,Unknown,9,Autumn,Mild
12390,2025-09-21 16:00:00,9.0,Western LLS Cobar,-31.4837,145.8293,4.0,9.0,,,,,20.6,31.1,987.3,3.6,Good,9,Autumn,Mild
13792,2025-09-21 14:00:00,4.0,Western LLS Pooncarie,-33.6016,142.5308,4.0,1.0,,,,,19.9,40.0,1011.6,5.6,Good,9,Autumn,Mild
12397,2025-09-21 16:00:00,3.0,Western LLS White Cliffs,-30.8517,143.0742,4.0,3.0,,,,,21.8,28.0,999.9,3.6,Good,9,Autumn,Mild
12685,2025-09-21 15:00:00,22.0,Rosedale,-38.15588,146.7842,6.0,,1.0,1.2,1.3,22.4,15.7,55.1,1004.1,10.8,Good,9,Autumn,Mild
13774,2025-09-21 15:00:00,7.0,South East LLS Cooma,-36.2225,149.1335,7.0,2.0,,,,,12.2,54.2,906.1,7.7,Good,9,Autumn,Mild
13769,2025-09-21 16:00:00,4.0,Central West LLS Condobolin,-33.0665,147.2283,4.0,2.0,,,,,19.3,41.0,994.9,5.6,Good,9,Autumn,Mild
14869,2025-09-21 16:00:00,27.0,Emerald,-23.5208,148.165,27.0,14.0,,,,,30.6,30.9,990.6,3.0,Good,9,Autumn,Hot
12489,2025-09-21 15:00:00,13.0,"Florey, Canberra",-35.220606,149.043539,,,5.1,,1.2,13.0,12.2,64.0,1016.5,16.0,Good,9,Autumn,Mild
3247,2025-09-21 16:00:00,21.0,GeelongSth.,-38.17356,144.3703,20.0,5.0,2.8,0.2,1.0,20.8,14.6,71.0,1010.8,8.2,Good,9,Autumn,Mild
12392,2025-09-21 16:00:00,3.0,Western LLS Euston,-34.443,142.889,4.0,3.0,,,,,19.5,49.5,1016.7,7.7,Good,9,Autumn,Mild
14875,2025-09-21 16:00:00,91.0,Swan Hill,-35.34314,143.534088,91.0,31.0,,,,,19.4,48.0,1007.3,9.2,Moderate,9,Autumn,Mild
5763,2025-09-21 16:00:00,97.0,Moranbah,-21.9995,148.071,97.0,9.0,,,,,29.7,39.1,985.4,4.1,Moderate,9,Autumn,Hot
3236,2025-09-21 16:00:00,20.0,Brighton,-37.9135475,144.998,20.0,11.0,3.8,0.8,1.5,8.0,14.3,80.6,1011.7,2.4,Good,9,Autumn,Mild
12393,2025-09-21 16:00:00,,Western LLS Hillston,-33.491,145.5242,4.0,3.0,,,,,18.3,48.0,1001.4,5.1,Unknown,9,Autumn,Mild
5124,2025-09-21 16:00:00,22.0,West Mackay,-21.1595,149.1549,22.0,13.0,,,,,24.8,71.1,1012.7,4.2,Good,9,Autumn,Mild
3273,2025-09-21 16:00:00,21.0,Albury South-west Slopes,-36.05182,146.9398,3.0,5.0,0.7,,,20.8,13.3,72.2,997.1,3.6,Good,9,Autumn,Mild
12920,2025-09-21 11:00:00,4.0,Riverina LLS Griffith,-34.2487,146.0695,4.0,2.0,,,,,17.2,51.1,1002.1,6.1,Good,9,Autumn,Mild
5132,2025-09-21 16:00:00,13.0,The Gap,-20.7264,139.4977,13.0,7.0,,0.6,,,29.6,21.1,976.3,2.4,Good,9,Autumn,Hot
3234,2025-09-21 16:00:00,17.0,Alphington,-37.7784081,145.0306,8.0,10.0,4.7,0.5,2.4,16.8,14.5,80.6,1013.2,1.8,Good,9,Autumn,Mild
12575,2025-09-21 16:00:00,25.0,Orange Central Tablelands,-33.27429,149.09447,11.0,6.0,0.6,,,25.4,10.8,66.9,909.0,7.2,Good,9,Autumn,Mild
12388,2025-09-21 10:00:00,4.0,Western LLS Bourke,-30.0362,145.9521,4.0,2.0,,,,,21.6,27.0,1005.4,3.0,Good,9,Autumn,Mild
12691,2025-09-21 16:00:00,7.0,Bright,-36.73228,146.9702,7.0,,,,,,0.1,,,10.8,Good,9,Autumn,Cold
13768,2025-09-21 08:00:00,17.0,Central Tablelands LLS Cowra,-33.8447,148.65,17.0,6.0,,,,,5.5,95.2,984.1,1.0,Good,9,Autumn,Cold
12492,2025-09-21 14:00:00,11.0,"Civic, Canberra",-35.285307,149.131579,,,,,,10.6,14.0,54.0,1015.0,8.7,Good,9,Autumn,Mild
13770,2025-09-21 16:00:00,4.0,Murray LLS Deniliquin,-35.5575,144.9458,4.0,2.0,,,,,17.0,51.0,1005.1,8.7,Good,9,Autumn,Mild
12386,2025-09-21 15:00:00,1.0,North West LLS Moree,-29.4897,149.8473,4.0,1.0,,,,,20.5,45.1,992.1,4.6,Good,9,Autumn,Mild
10721,2025-09-21 12:00:00,1.0,Riverina LLS Hay,-34.5348,144.8291,4.0,1.0,,,,,18.2,43.0,1006.3,6.6,Good,9,Autumn,Mild
12387,2025-09-21 16:00:00,7.0,North West LLS Walgett,-30.0359,148.1231,7.0,4.0,,,,,20.7,35.0,1002.0,3.6,Good,9,Autumn,Mild
12538,2025-09-21 16:00:00,28.0,Goulburn Southern Tablelands,-34.73452,149.72416,2.0,2.0,0.4,,,27.8,11.7,67.6,1013.9,5.3,Good,9,Autumn,Mild
12395,2025-09-21 15:00:00,1.0,Western LLS Lake Victoria,-34.0485,141.0633,4.0,1.0,,,,,22.2,40.9,1013.5,7.2,Good,9,Autumn,Mild
10147,2025-09-21 14:00:00,3.0,Kalgoorlie,-30.749,121.466,2.0,3.0,,,,,24.0,15.0,1026.0,3.6,Good,9,Autumn,Mild
13786,2025-09-21 16:00:00,4.0,Murray LLS Rand,-35.6296,146.4752,4.0,1.0,,,,,13.9,78.9,,2.5,Good,9,Autumn,Mild
3242,2025-09-21 16:00:00,19.0,Footscray,-37.8037071,144.869339,18.0,11.0,5.6,0.9,2.0,19.2,16.3,54.1,1003.2,6.1,Good,9,Autumn,Mild
3271,2025-09-21 16:00:00,26.0,Bathurst Central Tablelands,-33.40192,149.5746,16.0,9.0,,,,25.8,13.7,58.9,930.8,4.1,Good,9,Autumn,Mild
13788,2025-09-21 16:00:00,3.0,Riverina LLS Junee,-34.8254,147.5099,4.0,3.0,,,,,14.3,65.5,1016.3,1.2,Good,9,Autumn,Mild
13773,2025-09-21 16:00:00,,Riverina LLS West Wyalong,-33.9384,147.1965,4.0,1.0,,,,,19.5,42.2,987.1,5.1,Unknown,9,Autumn,Mild
10145,2025-09-21 16:00:00,2.0,Narrabri North-west Slopes,-30.31842,149.82932,1.0,2.0,,,,,20.2,37.1,990.0,3.0,Good,9,Autumn,Mild
13777,2025-09-21 14:00:00,4.0,Riverina LLS Narrandera,-34.705,146.514,4.0,1.0,,,,,16.7,51.0,1000.1,6.1,Good,9,Autumn,Mild
3235,2025-09-21 14:00:00,18.0,Box Hill,-37.8287277,145.1324,3.0,9.0,3.8,0.6,1.9,18.4,15.3,67.0,1004.8,4.1,Good,9,Autumn,Mild
12385,2025-09-21 16:00:00,4.0,Mallee CMA Werrimull,-34.4684,141.5728,4.0,2.0,,,,,19.9,40.0,1011.6,5.6,Good,9,Autumn,Mild
11985,2025-09-18 09:00:00,15.0,"Morrinsville Morrinsville College, New Zealand",-37.64961262,175.5357967,,15.0,,,,,16.1,85.6,1014.6,20.3,Good,9,Autumn,Mild
14897,2025-09-21 16:00:00,20.0,Parkwood,-27.9535,153.3475,20.0,16.0,1.0,,0.3,,22.8,56.5,1014.4,3.0,Good,9,Autumn,Mild
14871,2025-09-21 16:00:00,24.0,Singleton Singleton,-32.55748,151.1769,10.0,23.0,3.9,6.6,,23.5,7.2,13.6,1017.4,15.8,Good,9,Autumn,Cold
11967,2025-09-21 17:00:00,5.0,"Hastings St Johns, New Zealand",-39.63887326,176.858802,9.0,5.0,,,,,14.4,63.0,1020.0,4.0,Good,9,Autumn,Mild
3263,2025-09-21 16:00:00,26.0,Oakdale Sydney South-west,-34.05169,150.498,12.0,7.0,0.1,,,25.6,21.7,32.0,1004.5,5.6,Good,9,Autumn,Mild
13771,2025-09-21 15:00:00,4.0,North Coast LLS Grafton,-29.620556,152.96333,4.0,5.0,,,,,23.9,42.0,,3.0,Good,9,Autumn,Mild
3269,2025-09-21 16:00:00,25.0,Beresfield Lower Hunter,-32.79679,151.661,2.0,16.0,2.2,0.3,,25.4,22.0,33.0,1013.0,5.6,Good,9,Autumn,Mild
13800,2025-09-21 16:00:00,15.0,North Maclean,-27.7708,153.03,15.0,10.0,0.5,,,14.7,23.9,48.5,1013.3,3.9,Good,9,Autumn,Mild
11986,2025-09-21 17:00:00,10.0,"Putaruru Bowling Club, New Zealand",-38.05712209,175.7719284,,10.0,,,,,14.4,84.0,1026.1,2.0,Good,9,Autumn,Mild
12398,2025-09-21 16:00:00,27.0,North West LLS Gunnedah,-30.981667,150.260556,11.0,1.0,3.5,,,26.5,19.7,41.9,985.9,3.6,Good,9,Autumn,Mild
5121,2025-09-21 16:00:00,20.0,Clinton,-24.0,151.0,20.0,12.0,3.2,0.6,,,23.9,69.2,1014.0,4.1,Good,9,Autumn,Mild
14877,2025-09-21 17:00:00,5.0,"Taihape Air Quality At Taihape, New Zealand",-39.6778,175.80084,5.0,3.0,,,,,15.8,62.0,1021.5,1.5,Good,9,Autumn,Mild
3272,2025-09-21 16:00:00,26.0,Tamworth North-west Slopes,-31.109909,150.91451,3.0,11.0,0.8,,,25.8,18.5,37.5,1016.5,3.6,Good,9,Autumn,Mild
13772,2025-09-21 16:00:00,4.0,North Coast LLS Lismore,-28.824444,153.256667,4.0,4.0,,,,,23.6,49.1,1013.7,4.1,Good,9,Autumn,Mild
14879,2025-09-21 17:00:00,34.0,"Whangārei  Whangārei Air Shed At Robert Street, New Zealand",-35.72673221,174.3242464,34.0,15.0,,,,,15.3,81.8,1018.7,7.2,Good,9,Autumn,Mild
5119,2025-09-21 16:00:00,30.0,Targinie,-23.7744,151.1055,30.0,12.0,1.0,0.6,,,24.4,66.5,1014.0,0.5,Good,9,Autumn,Mild
13784,2025-09-21 16:00:00,26.0,Morisset,-33.107815,151.55256,7.0,8.0,4.5,8.1,0.2,25.7,21.9,50.7,1013.3,2.2,Good,9,Autumn,Mild
3267,2025-09-21 16:00:00,26.0,Wallsend Lower Hunter,-32.89439,151.6702,8.0,12.0,0.6,0.2,,26.2,21.2,42.7,1012.7,6.0,Good,9,Autumn,Mild
12539,2025-09-21 16:00:00,28.0,Port Macquarie Bushfire Emergency - Port Macquarie,-31.44747,152.87707,14.0,8.0,2.9,1.3,0.1,27.6,22.5,45.1,1012.7,4.6,Good,9,Autumn,Mild
3270,2025-09-21 16:00:00,29.0,Wyong Central Coast,-33.27896,151.4324,19.0,17.0,1.5,1.9,0.4,29.4,20.7,51.0,1012.0,4.6,Good,9,Autumn,Mild
5120,2025-09-21 16:00:00,18.0,Boat Creek,-23.8199,151.1538,18.0,12.0,0.5,1.1,,,25.0,65.4,1014.0,1.5,Good,9,Autumn,Hot
11987,2025-09-21 17:00:00,57.0,"Taupo Gillies Ave, New Zealand",-38.69189493,176.091175,57.0,14.0,,,,,13.8,72.0,1004.8,3.0,Moderate,9,Autumn,Mild
3257,2025-09-21 16:00:00,28.0,Prospect Sydney North-west,-33.79425,150.9142,16.0,11.0,1.0,0.1,0.3,28.3,22.9,36.7,1009.2,4.0,Good,9,Autumn,Mild
13796,2025-09-21 16:00:00,25.0,Sydney Penrith,-33.72687,150.70385,18.0,9.0,0.4,0.2,1.5,25.4,21.5,37.0,,1.5,Good,9,Autumn,Mild
13798,2025-09-21 16:00:00,18.0,Deception Bay,-27.4296,153.1581,18.0,11.0,1.0,,,13.9,22.8,62.3,1013.7,2.5,Good,9,Autumn,Mild
14881,2025-09-21 16:00:00,15.0,Toowoomba,-27.535158,151.931893,15.0,9.0,,,,,22.2,45.9,942.4,1.1,Good,9,Autumn,Mild
3155,2025-09-21 14:00:00,5.0,"Base Vie, New Caledonia",-22.31456389,166.902925,,5.0,0.2,0.8,,,28.5,54.5,1013.0,5.4,Good,9,Autumn,Hot
11966,2025-09-21 18:00:00,25.0,"Awatoto Awatoto AQ, New Zealand",-39.54588933,176.9191271,25.0,13.0,,,,,13.8,65.0,1019.7,5.0,Good,9,Autumn,Mild
9301,2025-09-21 20:00:00,,"Glen Eden, Auckland",-36.92,174.65,,,2.3,,,,15.0,74.6,1025.2,3.8,Unknown,9,Autumn,Mild
5116,2025-09-21 16:00:00,25.0,Rocklea,-27.5358,152.9934,25.0,13.0,1.9,,,14.7,25.3,46.2,1015.4,2.2,Good,9,Autumn,Hot
13783,2025-09-21 16:00:00,16.0,Deagon,-27.3292,153.0478,16.0,11.0,1.4,,,13.5,23.8,60.5,1018.7,1.4,Good,9,Autumn,Mild
5123,2025-09-21 16:00:00,17.0,Boyne Island,-23.9408,151.3507,17.0,10.0,1.0,0.6,2.7,,28.2,79.2,1005.5,2.7,Good,9,Autumn,Hot
12534,2025-09-21 16:00:00,33.0,Bushfire Monitoring Coffs Harbour,-30.29828,153.11811,15.0,10.0,0.3,,1.4,32.9,20.0,60.0,1015.0,2.5,Good,9,Autumn,Mild
12487,2025-09-21 16:00:00,19.0,Upper-hunter Camberwell,-32.472333,151.091803,15.0,19.0,,,,,7.2,13.6,1017.4,15.8,Good,9,Autumn,Cold
3249,2025-09-21 16:00:00,29.0,Randwick Sydney East,-33.93177,151.2428,13.0,13.0,3.0,0.2,,28.7,20.4,52.5,1013.5,0.5,Good,9,Autumn,Mild
13776,2025-09-21 16:00:00,34.0,Upper-hunter Merriwa,-32.125777,150.459299,34.0,9.0,0.2,0.2,0.2,24.0,18.9,43.2,972.2,7.2,Good,9,Autumn,Mild
9302,2025-09-21 20:00:00,,"Patumahoe, Auckland",-37.2,174.86,,,0.4,,,,15.0,82.0,1023.0,8.7,Unknown,9,Autumn,Mild
13795,2025-09-21 16:00:00,30.0,Sydney Lidcombe,-33.91618,151.0461,7.0,10.0,1.6,1.5,1.5,29.6,21.7,34.1,1012.8,4.1,Good,9,Autumn,Mild
11983,2025-09-21 18:00:00,10.0,"Hamilton Claudelands, New Zealand",-37.77754318,175.287159,13.0,10.0,,,,,13.8,83.0,1023.8,12.0,Good,9,Autumn,Mild
3264,2025-09-21 14:00:00,26.0,Wollongong Illawarra,-34.41706,150.8873,1.0,6.0,0.8,4.8,0.2,25.9,19.6,61.1,,5.1,Good,9,Autumn,Mild
3259,2025-09-21 16:00:00,28.0,Bringelly Sydney South-west,-33.91766,150.7619,17.0,11.0,0.3,0.6,,28.3,20.8,36.0,1004.0,3.0,Good,9,Autumn,Mild
3254,2025-09-21 16:00:00,27.0,Richmond Sydney North-west,-33.61644,150.7473,9.0,9.0,0.1,0.1,,26.6,21.5,36.0,1013.0,6.6,Good,9,Autumn,Mild
10718,2025-09-21 16:00:00,25.0,Armidale Northern Tablelands,-30.50851,151.66173,25.0,8.0,,,,,15.7,41.1,894.3,5.6,Good,9,Autumn,Mild
11988,2025-09-21 18:00:00,17.0,"Te Kuiti Waitomo District Council, New Zealand",-38.33779552,175.1653376,17.0,10.0,,,,,13.8,72.0,1004.9,4.3,Good,9,Autumn,Mild
11990,2025-09-21 18:00:00,38.0,"Tokoroa Billah Street, New Zealand",-38.22161674,175.8584304,38.0,14.0,,,,,14.4,85.0,1026.0,2.0,Good,9,Autumn,Mild
10726,2025-09-21 16:00:00,20.0,Southport,-27.9612,153.4024,20.0,15.0,1.0,,,14.7,21.9,66.0,1014.4,1.8,Good,9,Autumn,Mild
14898,2025-09-21 16:00:00,18.0,Coomera,-27.8634,153.3257,18.0,12.0,0.5,,,,22.5,59.0,1014.4,3.2,Good,9,Autumn,Mild
3153,2025-09-21 18:00:00,20.0,"Faubourg B, New Caledonia",-22.27890556,166.452925,18.0,5.0,0.8,0.4,,19.7,25.5,63.0,1014.0,2.8,Good,9,Autumn,Hot
11989,2025-09-21 18:00:00,20.0,"Thames Thames High School, New Zealand",-37.14049055,175.5462932,,20.0,,,,,14.4,71.0,1024.7,8.0,Good,9,Autumn,Mild
3250,2025-09-21 16:00:00,28.0,Rozelle Sydney East,-33.86435,151.1639,17.0,11.0,1.5,0.2,0.4,27.8,21.7,32.9,1008.7,,Good,9,Autumn,Mild
5113,2025-09-21 16:00:00,23.0,Mountain Creek,-26.6917,153.1038,23.0,11.0,0.5,,,15.5,24.2,68.5,1015.4,1.8,Good,9,Autumn,Mild
9300,2025-09-21 20:00:00,,"Henderson, Auckland",-36.86,174.62,,,2.5,,,,16.0,70.7,1025.2,3.2,Unknown,9,Autumn,Mild
12748,2025-09-21 20:00:00,41.0,"Queen Street, Auckland",-36.84742808,174.7657304,41.0,25.0,3.1,,,,15.0,72.2,1025.1,1.6,Good,9,Autumn,Mild
382,2025-09-21 01:00:00,9.0,"Villa Maria Del Triunfo, Lima, Peru",-12.16639,-76.92,,,8.2,2.3,9.3,1.9,15.5,83.0,985.5,,Good,9,Autumn,Mild
7581,2025-09-21 01:00:00,62.0,"Puente Piedra, Lima, Peru",-11.86325,-77.07413,62.0,,16.5,6.2,16.7,4.0,15.5,83.0,985.5,,Moderate,9,Autumn,Mild
10687,2025-09-21 00:00:00,85.0,"El Camal, Quito, Ecuador",-0.25,-78.51,85.0,,41.5,3.2,10.5,0.5,11.89,87.0,1027.0,0.23,Moderate,9,Autumn,Mild
6942,2025-09-21 00:00:00,98.0,"Cotocollao, Quito, Ecuador",-0.107777,-78.497222,98.0,15.0,39.7,2.0,9.5,0.8,12.58,87.0,1027.0,0.18,Moderate,9,Autumn,Mild
4982,2025-09-21 02:00:00,34.0,"Arica, Chile",-18.4768393,-70.28791143,34.0,,,,,,17.0,67.0,1016.0,2.5,Good,9,Autumn,Mild
7577,2025-09-21 01:00:00,84.0,"San Juan De Lurigancho, Lima, Peru",-11.98164,-76.99925,84.0,30.0,12.0,1.4,6.2,1.7,15.5,83.0,985.5,,Moderate,9,Autumn,Mild
14718,2025-09-21 07:00:00,46.0,"Kawéni Nord, Mayotte, France",-12.761174,45.226197,,46.0,,,,,29.0,70.0,1016.0,2.0,Good,9,Autumn,Hot
13853,2025-09-21 08:00:00,127.0,"Kigali US Embassy, Rwanda",-1.936231,30.077951,127.0,,,,,,22.0,46.0,1023.0,4.1,Unhealthy for Sensitive,9,Autumn,Mild
13653,2025-09-21 01:00:00,75.0,"Sleman, Indonesia",-7.731,110.354,75.0,,,,,,27.4,74.2,1011.0,2.5,Moderate,9,Autumn,Hot
8294,2025-09-21 01:00:00,155.0,"Kemayoran, Indonesia",-6.155,106.846,155.0,,,,,,26.0,83.0,1011.5,1.5,Unhealthy,9,Autumn,Hot
13650,2025-09-21 01:00:00,67.0,"Pesawaran, Indonesia",-5.17,105.178,67.0,,,,,,23.0,98.8,1000.8,1.5,Moderate,9,Autumn,Mild
13647,2025-09-21 01:00:00,89.0,"Malang, Indonesia",-7.9551897,112.6119383,89.0,,,,,,28.0,81.3,1011.1,1.5,Moderate,9,Autumn,Hot
8293,2025-09-21 01:00:00,58.0,"Samarinda, Indonesia",-0.4825,117.1563,58.0,,,,,,26.0,88.0,1009.5,2.3,Moderate,9,Autumn,Hot
13651,2025-09-21 01:00:00,97.0,"Semarang, Indonesia",-6.985,110.381,97.0,,,,,,27.4,74.2,1011.0,2.5,Moderate,9,Autumn,Hot
10490,2025-09-21 01:00:00,37.0,"Pangkalanbun, Indonesia",-2.676583,111.626448,37.0,,,,,,25.3,91.4,1008.1,1.5,Good,9,Autumn,Hot
13644,2025-09-21 01:00:00,13.0,"Bengkulu, Indonesia",-3.865,102.312,13.0,,,,,,25.0,92.0,1008.2,2.0,Good,9,Autumn,Hot
8292,2025-09-21 01:00:00,,"Banjarbaru, Indonesia",-3.475,114.856,78.0,,,,,,30.0,69.0,1009.4,2.0,Unknown,9,Autumn,Hot
13645,2025-09-21 01:00:00,51.0,"Kotabaru, Indonesia",-3.3,116.17,51.0,,,,,,26.5,89.3,1007.1,1.0,Moderate,9,Autumn,Hot
8289,2025-09-21 01:00:00,114.0,"Jambi, Indonesia",-1.6318964,103.6414547,114.0,,,,,,25.5,93.1,1006.6,1.0,Unhealthy for Sensitive,9,Autumn,Hot
13655,2025-09-21 01:00:00,43.0,"Supadio, Indonesia",-0.14,109.45,43.0,,,,,,24.5,91.4,1011.4,3.6,Good,9,Autumn,Mild
14903,2025-09-21 01:00:00,31.0,"Talang Betutu Palembang, Indonesia",-2.94,104.7,31.0,,,,,,25.2,97.1,1009.0,1.0,Good,9,Autumn,Hot
8342,2025-09-21 01:00:00,40.0,"Palangka Raya, Indonesia",-2.22611,113.945,40.0,,,,,,,,,,Good,9,Autumn,Unknown
10148,2025-09-21 16:00:00,41.0,Stokes Hill,-12.467003,130.850577,41.0,27.0,1.4,0.2,3.9,4.6,25.79,92.18,1007.1,1.22,Good,9,Autumn,Hot
13767,2025-09-21 16:00:00,140.0,Katherine,-14.465331,132.270787,140.0,44.0,,,,,33.9,43.96,1010.0,0.94,Unhealthy for Sensitive,9,Autumn,Hot
13654,2025-09-21 01:00:00,4.0,"Sorong, Indonesia",-0.8634105,131.2544805,4.0,,,,,,24.8,98.2,1009.0,1.0,Good,9,Autumn,Mild
5125,2025-09-21 16:00:00,24.0,Ayr,-19.5839,147.4059,24.0,19.0,,,,,27.8,63.8,,2.7,Good,9,Autumn,Hot
10727,2025-09-21 16:00:00,23.0,North Ward,-19.2509,146.8073,23.0,14.0,1.0,,,,26.2,71.9,1011.8,2.3,Good,9,Autumn,Hot
14899,2025-09-21 16:00:00,22.0,Cairns,-16.96162,145.7436,22.0,12.0,,,,,27.2,71.9,1011.6,3.3,Good,9,Autumn,Hot
6442,2025-09-21 16:00:00,11.0,Winnellie,-12.4243233,130.8933502,10.0,11.0,4.7,0.3,3.7,0.8,32.2,89.8,1007.1,5.79,Good,9,Autumn,Hot
9612,2025-09-20 20:00:00,21.0,"Kona, Hawaii, USA",19.50977778,-155.9134167,21.0,,,1.5,,,23.0,87.5,1017.6,0.5,Good,9,Autumn,Mild
7618,2025-09-20 20:00:00,38.0,"Mountain View, Hawaii, USA",19.555444,-155.102028,38.0,,,2.9,,,22.7,94.6,1017.2,0.4,Good,9,Autumn,Mild
5270,2025-09-20 20:00:00,34.0,"Hilo, Hawaii, USA",19.71756222,-155.1105295,34.0,,,0.1,,,23.0,93.0,1016.5,1.0,Good,9,Autumn,Mild
5267,2025-09-20 20:00:00,38.0,"Ocean View, Hawaii, USA",19.117561,-155.77813,38.0,,,1.5,,,23.8,88.7,1013.8,0.6,Good,9,Autumn,Mild
5269,2025-09-20 19:00:00,17.0,"Pahala, Hawaii, USA",19.2039,-155.4801833,17.0,,,0.1,,,23.8,88.7,1013.8,1.0,Good,9,Autumn,Mild
9162,2025-09-21 00:00:00,25.0,"Palacio Municipal Cuautla, Cuautla, Morelos, Mexico",18.81298694,-98.95530583,25.0,17.0,,5.0,4.1,22.2,17.0,63.0,1027.0,3.6,Good,9,Autumn,Mild
3315,2025-09-21 00:00:00,13.0,"UAM Xochimilco, México, Mexico",19.304441,-99.103629,13.0,,,1.5,5.6,8.8,17.0,63.0,1027.0,3.6,Good,9,Autumn,Mild
404,2025-09-20 23:00:00,25.0,"Merced, México, Mexico",19.42461,-99.119594,25.0,6.0,12.1,1.5,5.6,11.2,17.0,63.0,1027.0,3.6,Good,9,Autumn,Mild
5866,2025-09-21 00:00:00,30.0,"Cuautitlán, México, Mexico",19.722186,-99.198602,,30.0,18.6,2.9,6.7,7.3,17.0,63.0,1027.0,3.6,Good,9,Autumn,Mild
9175,2025-09-21 00:00:00,14.0,"Estación de Bomberos de Cd. Sahagún, Tepeapulco, Hidalgo, Mexico",19.77169444,-98.57769444,9.0,7.0,0.2,2.1,,13.8,24.0,94.0,1015.9,1.0,Good,9,Autumn,Mild
11798,2025-09-21 00:00:00,86.0,"Velódromo, Puebla, Mexico",19.11585806,-98.27748722,86.0,16.0,4.1,1.6,2.1,10.0,17.0,63.0,1027.0,3.6,Moderate,9,Autumn,Mild
9185,2025-09-21 00:00:00,32.0,"Biblioteca, Tizayuca, Hidalgo, Mexico",19.84058333,-98.98133333,32.0,15.0,12.1,2.2,7.3,10.8,17.0,63.0,1027.0,3.6,Good,9,Autumn,Mild
13304,2025-09-21 00:00:00,13.0,"Centro de Salud, Apizaco, Tlaxcala, Mexico",19.40985333,-98.15001111,13.0,8.0,0.1,0.1,1.0,13.2,24.0,94.0,1015.9,1.0,Good,9,Autumn,Mild
13293,2025-09-21 00:00:00,34.0,"Tecnológico de Zacatepec, Zacatepec, Morelos, Mexico",18.65444444,-99.18333333,34.0,,,2.2,0.9,30.1,21.9,88.7,1013.7,0.2,Good,9,Autumn,Mild
5729,2025-09-21 00:00:00,21.0,"Oxtotitlán, Toluca, Mexico",19.28349468,-99.68350942,,,7.5,,,20.8,14.0,76.0,1029.4,1.0,Good,9,Autumn,Mild
396,2025-09-21 00:00:00,32.0,"Metepec, Toluca, Mexico",19.27019291,-99.59530705,,32.0,8.4,,,18.4,14.0,76.0,1029.4,1.0,Good,9,Autumn,Mild
8529,2025-09-21 00:00:00,104.0,"Estación de Monitoreo Cuernavaca Centro, Morelos, Mexico",18.90861,-99.21167,104.0,22.0,12.3,2.3,5.9,12.7,17.0,63.0,1027.0,3.6,Unhealthy for Sensitive,9,Autumn,Mild
407,2025-09-21 00:00:00,25.0,"Pedregal, México, Mexico",19.325146,-99.204136,25.0,11.0,9.3,1.5,1.2,12.8,17.0,63.0,1027.0,3.6,Good,9,Autumn,Mild
8528,2025-09-21 00:00:00,38.0,"Tlalnepantla, México, Mexico",19.529077,-99.204597,38.0,21.0,13.0,4.3,4.5,12.1,17.0,63.0,1027.0,3.6,Good,9,Autumn,Mild
5727,2025-09-21 00:00:00,59.0,"Palacio Municipal, Morelia, Mexico",19.702153,-101.190948,59.0,,,,3.3,15.2,14.0,93.0,1023.7,1.5,Moderate,9,Autumn,Mild
12628,2025-09-20 22:00:00,42.0,"Caldas, Medellín, Colombia",6.0930777,-75.637764,42.0,,,,,,15.0,93.0,1027.0,2.0,Good,9,Autumn,Mild
13838,2025-09-21 01:00:00,16.0,"San Fernando, Trinidad and Tobago",10.2680076,-61.4670484,,,2.4,,,15.9,28.3,,,0.2,Good,9,Autumn,Hot
8908,2025-09-21 02:00:00,32.0,"Lamentin Bas Mission, Martinique, France",14.610653,-61.002586,32.0,20.0,2.5,,,5.2,25.0,94.0,1013.0,1.0,Good,9,Autumn,Hot
8909,2025-09-21 02:00:00,15.0,"Robert, Bourg, Martinique, France",14.6755583,-60.94580556,15.0,7.0,0.9,,,7.8,25.0,94.0,1013.0,1.0,Good,9,Autumn,Hot
6239,2025-09-21 02:00:00,63.0,"Suba, Bogota, Colombia",4.76251,-74.09343,63.0,29.0,5.2,0.5,2.9,2.4,10.2,76.0,565.0,2.1,Moderate,9,Autumn,Mild
12513,2025-09-20 22:00:00,57.0,"Aranjuez, Medellín, Colombia",6.2904806,-75.5555191,57.0,,,,,,15.0,93.0,1027.0,2.0,Moderate,9,Autumn,Mild
6965,2025-09-20 12:00:00,,"San Salvador Centro, El Salavor",13.70630556,-89.20011667,,,,,,,19.4,17.8,1013.8,0.3,Unknown,9,Autumn,Mild
12776,2025-09-21 01:00:00,65.0,"Port of Spain, Trinidad and Tobago",10.6425559,-61.4940554,65.0,30.0,1.9,,500.0,,-17.7,40.0,507.9,0.2,Moderate,9,Autumn,Cold
12682,2025-09-21 00:00:00,35.0,"Bt_artchipel, Guadeloupe, France",15.994349,-61.727203,35.0,21.0,5.1,1.7,,6.0,25.0,88.0,1014.0,1.0,Good,9,Autumn,Hot
8139,2025-09-21 01:00:00,,"San Juan, Puerto Rico",18.428388,-66.141657,50.0,,,,,,27.2,85.0,1016.7,0.9,Unknown,9,Autumn,Hot
6236,2025-09-21 02:00:00,46.0,"San Cristobal, Bogota, Colombia",4.5725,-74.0836,46.0,16.0,4.8,0.2,2.6,8.0,11.6,65.0,1027.0,1.3,Good,9,Autumn,Mild
12637,2025-09-20 22:00:00,46.0,"La Estrella, Medellín, Colombia",6.1555305,-75.6441727,46.0,,,,,,15.0,93.0,1027.0,2.0,Good,9,Autumn,Mild
14711,2025-09-21 02:00:00,35.0,"Marigot, Saint-Martin, France",18.070114,-63.081481,35.0,20.0,0.9,,,9.1,28.3,81.7,1016.4,1.2,Good,9,Autumn,Hot
11831,2025-09-21 02:00:00,45.0,"Station Ptp Victoire, Guadeloupe, France",16.23674,-61.534101,45.0,23.0,5.1,,,6.8,25.0,88.0,1014.0,0.2,Good,9,Autumn,Hot
6235,2025-09-21 02:00:00,34.0,"Tunal, Bogota, Colombia",4.57619,-74.13093,34.0,26.0,3.6,0.3,,7.3,11.0,62.0,1027.0,0.6,Good,9,Autumn,Mild
6232,2025-09-21 02:00:00,62.0,"Fontibon, Bogota, Colombia",4.6782472,-74.1438166,62.0,13.0,9.3,0.5,2.6,3.3,12.5,70.8,565.0,2.2,Moderate,9,Autumn,Mild
12625,2025-09-20 18:00:00,42.0,"Barbosa, Medellín, Colombia",6.4369602,-75.3303986,42.0,,,,,,15.0,93.0,1027.0,2.0,Good,9,Autumn,Mild
10081,2025-09-20 18:00:00,29.0,"Lycée Kourou, Guyane, France",5.16425,-52.6465,29.0,16.0,,,,11.4,27.0,88.0,1013.0,0.7,Good,9,Autumn,Hot
14719,2025-09-21 03:00:00,9.0,"Matiti, Guyane, France",5.034602,-52.563795,,,0.4,,,8.9,24.5,97.0,1012.0,0.5,Good,9,Autumn,Mild
6964,2025-09-21 03:00:00,1.0,"Matoury Kalou, Guyane, France",4.84816,-52.3238,,,0.6,,,1.4,24.5,97.0,1012.0,0.5,Good,9,Autumn,Mild
8137,2025-09-21 03:00:00,12.0,"Cayenne Caiena 3, Guyane, France",4.93785,-52.3209,,12.0,,,0.1,,24.5,97.0,1012.0,0.5,Good,9,Autumn,Mild
9059,2025-09-21 09:00:00,91.0,"Addis Ababa US Embassy, Ethiopia",9.058498,38.761642,91.0,,,,,,15.0,87.0,1028.0,1.0,Moderate,9,Autumn,Mild
9147,2025-09-21 12:00:00,29.0,"MIDC Khutala, Chandrapur, India",19.9775302,79.2337086,29.0,13.0,1.6,1.4,10.9,3.3,31.6,57.66,,0.975,Good,9,Autumn,Hot
13712,2025-09-21 12:00:00,101.0,"Deonar, Mumbai, India",19.04946,72.923,101.0,27.0,2.8,0.9,1.4,3.4,29.0,,1008.0,,Unhealthy for Sensitive,9,Autumn,Hot
13739,2025-09-21 12:00:00,82.0,"Kodungaiyur, Chennai, Chennai, India",13.1278,80.2642,82.0,57.0,3.0,1.1,6.5,,29.275,69.96,82944.75,1.715,Moderate,9,Autumn,Hot
13737,2025-09-21 12:00:00,90.0,"Royapuram, Chennai, Chennai, India",13.1036,80.2909,90.0,58.0,7.1,1.2,6.1,3.3,27.14,73.12,733.77,1.07,Moderate,9,Autumn,Hot
14701,2025-09-21 12:00:00,84.0,"Crescent University, Chengalpattu, India",12.8777316,80.0834807,84.0,43.0,1.4,6.4,1.0,8.6,31.0,74.0,1005.0,4.1,Moderate,9,Autumn,Hot
13693,2025-09-21 12:00:00,85.0,"Corporation Ground, Thrissur, India",10.5324,76.2159,85.0,47.0,2.9,0.4,3.9,12.3,30.0,64.8925,1009.5,2.1575,Moderate,9,Autumn,Hot
12439,2025-09-21 02:00:00,,"Hebbal 1st Stage, Mysuru, India",12.21041,76.37376,53.0,31.0,7.8,216.6,1.9,19.1,29.0,99.3,828.5,0.06,Unknown,9,Autumn,Hot
14138,2025-09-20 10:00:00,100.0,"Bombay Castel, Ooty, India",11.4068288,76.7138973,100.0,36.0,1.1,9.7,4.6,2.2,27.5,0.34,782.345,1.795,Moderate,9,Autumn,Hot
12819,2025-09-21 12:00:00,102.0,"Thavakkara, Kannur, India",11.875,75.3732,102.0,55.0,5.9,2.0,2.8,13.4,30.0,58.1,,3.675,Unhealthy for Sensitive,9,Autumn,Hot
13722,2025-09-18 07:00:00,3.0,"Diwator Nagar, Koppal, India",15.34763,76.181767,3.0,,9.9,,,2.6,22.4,91.2,933.1,0.5,Good,9,Autumn,Mild
14129,2025-09-21 12:00:00,723.0,"Chalai Bazaar, Ramanathapuram, India",9.36399,78.831977,386.0,723.0,4.8,5.4,4.3,1.9,35.0,69.24,1005.88,1.04,Hazardous,9,Autumn,Hot
12891,2025-09-21 07:00:00,57.0,"Polayathode, Kollam, India",8.8787,76.6073,57.0,52.0,3.6,1.0,3.0,12.1,28.0,99.965,1010.0,0.895,Moderate,9,Autumn,Hot
11919,2025-09-20 13:00:00,129.0,"Udyogamandal, Eloor, India",10.073232,76.302765,129.0,54.0,2.6,0.4,18.6,4.7,31.0,85.1975,1009.5,1.505,Unhealthy for Sensitive,9,Autumn,Hot
14130,2025-09-20 00:00:00,57.0,"Ashwini Nagar, Haveri, India",14.7918,75.3896,51.0,23.0,3.1,57.4,4.6,12.2,24.6,39.0225,945.1,3.925,Moderate,9,Autumn,Mild
11284,2025-09-21 12:00:00,230.0,"Central University, Hyderabad, India",17.460103,78.334361,32.0,31.0,15.5,2.4,229.8,49.0,25.7,65.5,709.0,1.3,Very Unhealthy,9,Autumn,Hot
11921,2025-09-21 12:00:00,96.0,"Worli, Mumbai, India",18.9936162,72.8128113,96.0,44.0,2.4,7.9,1.6,8.2,29.0,98.45,1008.59,0.83,Moderate,9,Autumn,Hot
13718,2025-09-21 12:00:00,92.0,"Kadri, Mangalore, India",12.88925,74.853,92.0,54.0,1.5,2.8,,9.9,28.0,76.0,1010.0,3.6,Moderate,9,Autumn,Hot
14125,2025-09-21 12:00:00,110.0,"Somajiguda, Hyderabad, India",17.417094,78.457437,110.0,67.0,6.2,6.8,3.7,16.0,30.0,61.315,1009.0,3.365,Unhealthy for Sensitive,9,Autumn,Hot
11847,2025-09-21 12:00:00,52.0,"SIDCO Kurichi, Coimbatore, India",10.942451,76.978996,52.0,28.0,6.4,9.0,1.2,2.1,31.0,56.86,,,Moderate,9,Autumn,Hot
14142,2025-09-21 12:00:00,26.0,"Kumaran College, Tirupur, India",11.0973603,77.3228673,25.0,26.0,1.2,2.1,2.8,1.4,31.0,56.23,974.2,1.28,Good,9,Autumn,Hot
11316,2025-09-21 12:00:00,40.0,"Chikkaballapur Rural, Chikkaballapur, India",13.428828,77.731418,40.0,22.0,3.4,5.2,1.9,5.8,29.35,62.5,650.0,0.95,Good,9,Autumn,Hot
14147,2025-09-21 12:00:00,78.0,"SIPCOT Phase-1, Hosur, India",12.746998,77.813811,78.0,43.0,0.6,21.4,3.2,3.9,25.0,59.955,,1.93,Moderate,9,Autumn,Hot
13728,2025-09-21 12:00:00,824.0,"B.Katihalli, Hassan, India",13.008556,76.125258,824.0,880.0,4.9,0.4,,0.3,33.2,49.695,1003.2,1.17,Hazardous,9,Autumn,Hot
13695,2025-09-21 12:00:00,77.0,"Vinoba Nagara, Shivamogga, India",13.94,75.555917,77.0,49.0,4.8,1.3,2.9,22.7,23.5,64.34,881.6,2.59,Moderate,9,Autumn,Mild
12810,2025-09-21 12:00:00,68.0,"Vidayagiri, Bagalkot, India",16.172806,75.659694,68.0,39.0,3.4,2.8,2.2,6.5,25.0,17.22,863.5,1.28,Moderate,9,Autumn,Hot
13735,2025-09-21 12:00:00,70.0,"Devaraj Urs Badavane, Davanagere, India",14.4758,75.9052,70.0,35.0,6.9,1.7,2.4,10.1,23.5,81.52,,0.27,Moderate,9,Autumn,Mild
9585,2025-09-21 12:00:00,91.0,"Plammoodu, Thiruvananthapuram, India",8.5149093,76.9435879,91.0,46.0,26.2,7.6,1.7,6.0,25.7,81.0,750.5,3.0,Moderate,9,Autumn,Hot
14152,2025-09-21 12:00:00,68.0,"Mendonsa Colony, Dindigul, India",10.358535,77.984321,68.0,23.0,4.0,3.7,2.3,23.9,35.0,57.8,975.77,1.4,Moderate,9,Autumn,Hot
11303,2025-09-21 12:00:00,38.0,"Anand Kala Kshetram, Rajamahendravaram, India",16.9872867,81.7363176,38.0,22.0,3.8,2.8,2.2,4.3,30.45,50.0,748.0,4.25,Good,9,Autumn,Hot
11298,2025-09-21 12:00:00,75.0,"Lal Bahadur Shastri Nagar, Kalaburagi, India",17.321993,76.822628,75.0,43.0,4.6,19.2,7.3,24.8,30.0,69.49,956.2,1.95,Moderate,9,Autumn,Hot
9146,2025-09-20 15:00:00,38.0,"More Chowk, Waluj, Aurangabad, India",19.8389439,75.244448,,38.0,6.7,6.0,2.3,21.3,30.0675,61.5325,1008.0,0.3125,Good,9,Autumn,Hot
12827,2025-09-21 12:00:00,72.0,"Ibrahimpur, Vijayapura, India",16.802639,75.722694,72.0,40.0,3.3,3.1,4.3,6.7,25.0,68.82,821.64,1.49,Moderate,9,Autumn,Hot
13708,2025-09-21 12:00:00,61.0,"Mulund West, Mumbai, India",19.175,72.9419,61.0,51.0,4.4,25.4,,,29.0,95.34,874.64,0.11,Moderate,9,Autumn,Hot
13807,2025-09-21 12:00:00,94.0,"Anthoni Pillai Nagar, Gummidipoondi, India",13.4127,80.1081,94.0,53.0,1.2,5.6,,,28.705,69.92,765.515,2.23,Moderate,9,Autumn,Hot
12811,2025-09-21 11:00:00,73.0,"Kalyana Nagara, Chikkamagaluru, India",13.328028,75.797056,73.0,33.0,6.9,0.2,2.0,24.0,26.6,60.125,848.25,2.0,Moderate,9,Autumn,Hot
12440,2025-09-21 12:00:00,24.0,"Collector Office, Yadgir, India",16.7602,77.1428,9.0,24.0,11.9,7.1,2.9,,26.1,57.0,963.3,0.3,Good,9,Autumn,Hot
14148,2025-09-21 12:00:00,109.0,"Gulzarpet, Anantapur, India",14.675886,77.593027,109.0,52.0,8.0,3.8,0.1,4.8,28.6,60.93,714.315,0.65,Unhealthy for Sensitive,9,Autumn,Hot
14150,2025-09-21 12:00:00,48.0,"Meelavittan, Thoothukudi, India",8.816428,78.099039,,48.0,7.9,2.7,3.3,5.4,20.29,39.41,726.47,4.805,Good,9,Autumn,Mild
12443,2025-09-21 12:00:00,102.0,"GVM Corporation, Visakhapatnam, India",17.72,83.3,102.0,67.0,7.1,5.6,6.7,4.4,32.85,68.0,743.0,0.65,Unhealthy for Sensitive,9,Autumn,Hot
12747,2025-09-21 12:00:00,64.0,"Urban, Chamarajanagar, India",11.55358,76.55521,64.0,42.0,10.6,1.6,4.2,10.8,31.0,55.0,845.2,1.88,Moderate,9,Autumn,Hot
12453,2025-09-20 09:00:00,77.0,"Vasai West, Mumbai, India",19.3832,72.8204,77.0,44.0,12.9,3.2,10.5,5.9,27.0,91.875,1010.07,0.67,Moderate,9,Autumn,Hot
12426,2025-09-20 16:00:00,,"Vijay Nagar, Ramanagara, India",12.733409,77.298051,51.0,27.0,5.1,9.2,9.3,,23.7,71.0,1008.1,1.0,Unknown,9,Autumn,Mild
13719,2025-09-21 12:00:00,60.0,"Stuart Hill, Madikeri, India",12.415911,75.73505,60.0,33.0,,3.1,1.0,2.1,23.35,84.5,684.0,1.3,Moderate,9,Autumn,Mild
12460,2025-09-21 12:00:00,67.0,"Borivali East, Mumbai, India",19.23241,72.86895,67.0,22.0,29.4,,6.8,6.2,29.0,,1008.0,,Moderate,9,Autumn,Hot
12462,2025-09-21 12:00:00,84.0,"Khadakpada, Kalyan, India",19.25292,73.142019,84.0,57.0,3.2,2.9,2.1,6.4,29.0,67.45,1007.54,0.87,Moderate,9,Autumn,Hot
11280,2025-09-20 18:00:00,58.0,"Secretariat, Amaravati, India",16.5150833,80.5181667,58.0,40.0,7.5,4.0,2.9,11.4,33.3,66.5,749.5,4.45,Moderate,9,Autumn,Hot
11293,2025-09-21 12:00:00,110.0,"Silk Board, Bengaluru, India",12.917348,77.622813,68.0,110.0,2.9,4.0,6.3,4.3,31.7,59.0,712.0,1.45,Unhealthy for Sensitive,9,Autumn,Hot
8677,2025-09-21 12:00:00,138.0,"Zoo Park, Bahadurpura West, Hyderabad, India",17.349694,78.451437,138.0,64.0,5.2,1.1,1.7,10.0,27.55,57.5,732.0,2.2,Unhealthy for Sensitive,9,Autumn,Hot
9014,2025-09-21 13:00:00,104.0,"Tha Tum, Si Maha Phot, Prachin Buri, Thailand (ต.ท่าตูม อ.ศรีมหาโพธิ จ.ปราจีนบุรี)",13.917563,101.590529,104.0,50.0,,,,5.2,32.0,59.0,1007.0,5.1,Unhealthy for Sensitive,9,Autumn,Hot
10481,2025-09-21 14:00:00,47.0,"Pak Prak, Kanchanaburi, Kanchanaburi, Thailand (ต.ปากแพรก อ.เมือง จ.กาญจนบุรี)",14.022376,99.536195,47.0,47.0,,,0.1,6.7,32.2,62.0,1004.0,2.0,Good,9,Autumn,Hot
8117,2025-09-21 11:00:00,4.0,"Pekan Tutong, Brunei",4.8140524,114.6608562,,,,,,,32.0,52.0,1011.0,2.5,Good,9,Autumn,Hot
9493,2025-09-21 14:00:00,55.0,"Batu Pahat, Johor, Malaysia",1.919323,102.866618,55.0,15.0,1.2,1.1,0.1,14.5,31.8,80.5,1009.8,4.3,Moderate,9,Autumn,Hot
2593,2025-09-21 14:00:00,74.0,"Jerantut, Pahang, Malaysia",3.94836,102.366632,74.0,25.0,0.8,0.6,0.1,19.4,32.0,66.0,1009.0,2.5,Moderate,9,Autumn,Hot
2597,2025-09-21 14:00:00,50.0,"Seri Manjung, Perak, Malaysia",4.200344,100.663358,50.0,19.0,,,,,33.0,59.0,1009.0,1.0,Good,9,Autumn,Hot
2595,2025-09-21 14:00:00,11.0,"Kg. Air Putih, Taiping, Perak, Malaysia",4.89885,100.679106,11.0,5.0,0.8,0.3,0.1,7.5,34.0,46.0,1009.0,1.0,Good,9,Autumn,Hot
10482,2025-09-21 12:00:00,30.0,"Phiman, Satun, Satun, Thailand (ต.พิมาน อ.เมือง จ.สตูล)",6.624747,100.066159,30.0,21.0,1.8,0.6,0.1,6.4,34.0,46.0,1009.0,4.6,Good,9,Autumn,Hot
2610,2025-09-21 14:00:00,41.0,"Kuching, Sarawak, Malaysia",1.562229,110.388958,41.0,13.0,0.5,0.9,0.1,7.7,33.5,59.0,1008.5,2.3,Good,9,Autumn,Hot
1663,2025-09-21 15:00:00,38.0,"South, Singapore",1.296183,103.846181,38.0,17.0,,3.0,3.0,8.0,33.0,49.0,1009.0,5.1,Good,9,Autumn,Hot
2589,2025-09-21 14:00:00,57.0,"Port Dickson, Negeri Sembilan, Malaysia",2.441383,101.866858,57.0,18.0,0.9,0.8,0.1,16.7,31.0,66.0,1008.0,2.0,Moderate,9,Autumn,Hot
2590,2025-09-21 14:00:00,79.0,"Seremban, Negeri Sembilan, Malaysia",2.723381,101.968497,79.0,28.0,1.3,1.0,0.1,22.2,31.0,66.0,1008.0,2.0,Moderate,9,Autumn,Hot
5247,2025-09-21 14:00:00,32.0,"City Mine station dormitory building , Wenchang (文昌市矿山管理站宿舍大楼)",19.6208,110.7477,17.0,10.0,0.5,2.1,3.1,31.7,33.0,59.0,1005.0,3.6,Good,9,Autumn,Hot
1840,2025-09-21 14:00:00,60.0,"South Bangkok Power Plant, Samut Prakan, Thailand (โรงไฟฟ้าพระนครใต้)",13.618,100.5562,60.0,30.0,9.3,0.6,0.1,13.4,32.0,59.0,1006.0,3.6,Moderate,9,Autumn,Hot
2624,2025-09-21 14:00:00,28.0,"Paka, Terengganu, Malaysia",4.598064,103.434819,28.0,13.0,3.8,0.9,,,32.0,70.0,1009.0,2.0,Good,9,Autumn,Hot
13658,2025-09-21 13:00:00,115.0,"Đà Nẵng/Hòa Thuận Tây, Hải Châu - KTTV - Trạm cảm biến, Vietnam",16.043252,108.206826,54.0,115.0,,,,,32.5,64.0,1004.5,3.8,Unhealthy for Sensitive,9,Autumn,Hot
3688,2025-09-21 14:00:00,61.0,"Khonkaen, Thailand (ส่วนอุทกวิทยา สำนักงานทรัพยากรน้ำภาค 4 ขอนแก่น)",16.44538333,102.83525,61.0,,,,,,32.0,62.0,1006.0,2.0,Moderate,9,Autumn,Hot
8503,2025-09-21 14:00:00,27.0,"Huai Kon, Chaloem Phra Kiat, Nan, Thailand (ต.ห้วยโก๋น อ.เฉลิมพระเกียรติ จ.น่าน)",19.5759666,101.0815166,27.0,70.0,0.6,1.1,0.1,3.2,25.4,92.5,970.1,,Good,9,Autumn,Hot
10484,2025-09-21 14:00:00,57.0,"Tangkak, Johor, Malaysia",2.294794,102.571595,57.0,18.0,1.1,1.4,0.1,16.5,32.0,70.0,1011.0,3.0,Moderate,9,Autumn,Hot
1585,2025-09-21 08:00:00,11.0,"Nha Trang, Vietnam",12.284358,109.192524,11.0,8.0,,,1.0,15.0,33.0,59.0,1008.0,3.0,Good,9,Autumn,Hot
12795,2025-09-21 14:00:00,24.0,"T.Meechai A.Muang Nongkhai Province, Thailand (ต.มีชัย อ.เมืองหนองคาย จ.หนองคาย)",17.87748,102.728925,24.0,10.0,1.8,0.6,0.1,0.4,28.0,58.0,1006.0,1.0,Good,9,Autumn,Hot
1869,2025-09-21 14:00:00,17.0,"Sriaranyothai Kindergarten, Aranyaprathed, Sa Kaeo, Thailand (โรงเรียนอนุบาลศรีอรัญโญทัย สระแก้ว)",13.691888,102.502267,17.0,57.0,,,,,32.2,65.1,1001.1,1.5,Good,9,Autumn,Hot
1343,2025-09-21 14:00:00,50.0,"Hainan Normal University, Haikou (海口海南师范大学)",19.9969,110.338,50.0,22.0,2.8,2.1,3.0,38.6,33.0,59.0,1005.0,3.6,Good,9,Autumn,Hot
14927,2025-09-21 14:00:00,18.0,"Thanh Hoá/UBND P. Lam Sơn, TX. Bỉm Sơn, Vietnam",19.91053,105.4039,18.0,18.0,,18.0,6.0,1.0,33.5,65.3,1004.6,1.0,Good,9,Autumn,Hot
8115,2025-09-21 11:00:00,3.0,"Brunei Muara, Brunei",4.9311206,114.9516869,,,,,,,32.0,52.0,1011.0,2.5,Good,9,Autumn,Hot
8640,2025-09-21 14:00:00,70.0,"Lingshui Tufu Bay, Lingshuixian (陵水县陵水土福湾)",18.403055,109.818054,70.0,20.0,1.0,3.1,5.5,30.9,31.0,74.0,1005.0,2.5,Moderate,9,Autumn,Hot
4479,2025-09-21 14:00:00,29.0,"City Land Resources Bureau station , Dongfang (东方市国土资源局站)",19.1005,108.6777,9.0,4.0,1.0,2.1,2.8,29.3,31.5,73.1,1004.6,3.0,Good,9,Autumn,Hot
5780,2025-09-21 14:00:00,145.0,Kuala Lumpur,3.139003,101.686855,145.0,53.0,1.8,1.9,0.1,33.1,33.0,62.0,1009.0,4.6,Unhealthy for Sensitive,9,Autumn,Hot
1827,2025-09-21 12:00:00,29.0,"Municipal Health Center 1, Phuket, Thailand (ศูนย์บริการสาธารณสุข 1 กองการแพทย์ เทศบาลนครภูเก็ต)",7.884488,98.391283,29.0,12.0,1.2,0.6,,,31.0,70.0,1010.0,5.1,Good,9,Autumn,Hot
12488,2025-09-21 12:00:00,5.0,"Thừa Thiên Huế/83 Hùng Vương, Vietnam",16.46226,107.596351,5.0,4.0,,37.0,4.0,3.0,32.0,66.0,1004.5,3.8,Good,9,Autumn,Hot
1831,2025-09-21 14:00:00,20.0,"Knowledge Park, Phayao, Thailand (อุทยานการเรียนรู้กว๊านพะเยา)",19.200226,99.893048,20.0,77.0,6.4,,0.1,13.1,23.8,99.0,973.3,0.3,Good,9,Autumn,Mild
1868,2025-09-21 14:00:00,112.0,"Provincial Administrative Stadium, Lamphun, Thailand (สนามกีฬาองค์การบริหารส่วนจังหวัดลำพูน)",18.567194,99.038639,112.0,82.0,7.5,0.6,,14.6,32.0,59.0,1006.0,2.0,Unhealthy for Sensitive,9,Autumn,Hot
13666,2025-09-17 02:00:00,,"Nghệ An/Trường Thi, Thành phố Vinh - KTTV - Trạm cảm biến, Vietnam",18.675369,105.690945,,42.0,73.0,58.0,16.0,2.0,27.8,91.0,1008.3,1.0,Unknown,9,Autumn,Hot
13576,2025-09-21 14:00:00,7.0,"Prachuap Khiri Khan - Gaia Station 10, Thailand",11.80027,99.790596,6.8,2.4,,,,,29.5,74.5,1007.3,2.5,Good,9,Autumn,Hot
5779,2025-09-21 14:00:00,39.0,Miri,4.333131,113.99486,39.0,11.0,0.6,0.8,0.1,7.2,33.0,52.0,1008.0,2.5,Good,9,Autumn,Hot
13652,2025-09-21 01:00:00,40.0,"Sintang, Indonesia",0.066,111.477,40.0,,,,,,28.8,79.5,1004.4,4.1,Good,9,Autumn,Hot
13633,2025-09-18 17:00:00,44.0,"Suphan Buri Provincial Central Stadium, Thailand (สนามกีฬากลางจังหวัดสุพรรณบุรี)",14.476214,100.086095,44.0,51.0,4.1,0.6,0.1,5.2,32.2,7.4,1004.0,0.5,Good,9,Autumn,Hot
2591,2025-09-21 14:00:00,24.0,"Balok Baru, Kuantan, Pahang, Malaysia",3.960644,103.382158,24.0,9.0,0.9,0.6,,,32.0,66.0,1009.0,2.5,Good,9,Autumn,Hot
9450,2025-09-21 14:00:00,4.0,"Chiangrai - Gaia Station 01, Thailand",19.687157,100.19024,3.9,1.4,,,,,25.0,94.0,1009.0,2.5,Good,9,Autumn,Hot
2603,2025-09-21 14:00:00,17.0,"Keningau, Sabah, Malaysia",5.339317,116.163658,17.0,9.0,0.5,0.8,0.1,8.5,33.0,66.0,1008.0,1.5,Good,9,Autumn,Hot
2578,2025-09-21 14:00:00,76.0,"Larkin Lama, Johor, Malaysia",1.494625,103.735975,76.0,28.0,3.7,1.5,0.1,16.8,28.0,83.0,1009.0,0.5,Moderate,9,Autumn,Hot
13659,2025-09-21 14:00:00,24.0,"Tây Ninh/Thị xã Tràng Bảng, Vietnam",11.030287,106.35631,10.0,24.0,124.0,,,,33.0,62.0,1006.0,5.9,Good,9,Autumn,Hot
13417,2025-09-21 14:00:00,29.0,"Gia Lai/BQL KCN Trà Đa, Vietnam",14.017737,108.035181,29.0,16.0,,21.0,5.0,5.0,25.2,81.0,923.8,1.0,Good,9,Autumn,Hot
1863,2025-09-21 08:00:00,48.0,"Wang Yen Subdistrict Administrative, Chachoengsao, Thailand (องค์การบริหารส่วนตำบลวังเย็น)",13.5885,101.2863333,48.0,56.0,8.1,1.6,,0.8,27.0,8.9,1002.4,1.0,Good,9,Autumn,Hot
1854,2025-09-21 14:00:00,36.0,"Municipal Waste Water Pumping Station, Nakhon Ratchasima, Thailand (สถานีสูบน้ำเสีย เทศบาลนครราชสีมา)",14.979537,102.098335,36.0,,4.7,,,,32.7,67.1,985.2,3.6,Good,9,Autumn,Hot
1819,2025-09-21 10:00:00,70.0,"Health Promotion Hospital Maptaput, Rayong, Thailand (โรงพยาบาลส่งเสริมสุขภาพตำบลมาบตาพุด)",12.70865,101.1659833,70.0,39.0,11.0,2.2,0.1,7.5,31.0,74.0,1009.0,4.6,Moderate,9,Autumn,Hot
4693,2025-09-21 14:00:00,50.0,"Bangkok University Rangsit Campus, Pathum Thani, Thailand (มหาวิทยาลัยกรุงเทพ วิทยาเขตรังสิต)",14.03742,100.605216,50.0,19.0,,2.7,0.1,12.7,33.0,52.0,1006.0,5.1,Good,9,Autumn,Hot
2609,2025-09-21 14:00:00,20.0,"Kapit, Sarawak, Malaysia",2.014498,112.92736,20.0,8.0,,,,,,,,,Good,9,Autumn,Unknown
2623,2025-09-21 14:00:00,54.0,"Kuala Terengganu, Terengganu, Malaysia",5.308094,103.120392,54.0,21.0,2.4,1.5,0.1,15.5,32.0,70.0,1009.0,2.0,Moderate,9,Autumn,Hot
2596,2025-09-21 14:00:00,64.0,"S K Jalan Pegoh, Ipoh, Perak, Malaysia",4.553336,101.080236,64.0,28.0,1.2,0.6,0.1,20.8,34.0,46.0,1009.0,1.0,Moderate,9,Autumn,Hot
8646,2025-09-21 01:00:00,75.0,"Indrapuri, Indonesia",5.404,95.475,75.0,,,,,,24.1,82.8,1007.6,1.0,Moderate,9,Autumn,Mild
2583,2025-09-21 14:00:00,31.0,"Langkawi, Kedah, Malaysia",6.331539,99.85846,31.0,14.0,0.5,0.6,0.1,6.8,31.0,66.0,1010.0,3.6,Good,9,Autumn,Hot
13418,2025-09-20 08:00:00,5.0,"Gia Lai/UBND thị xã An Khê, Vietnam",13.953878,108.656162,5.0,5.0,,1.0,5.0,,28.4,79.9,1007.1,1.0,Good,9,Autumn,Hot
12759,2025-09-21 14:00:00,50.0,"Mueang, Nakhon Pathom, Thailand (ต.นครปฐม อ.เมือง จ.นครปฐม)",13.832076,100.057961,50.0,51.0,6.4,0.6,0.1,5.2,33.0,52.0,1006.0,5.1,Good,9,Autumn,Hot
1823,2025-09-21 13:00:00,36.0,"Lampang Meteorological Station, Thailand (สถานีอุตุนิยมวิทยาลำปาง)",18.2783333,99.5064666,36.0,75.0,1.8,0.6,0.1,11.5,30.8,77.5,1002.3,2.0,Good,9,Autumn,Hot
8116,2025-09-21 11:00:00,1.0,"Kuala Belait, Brunei",4.5831986,114.2212174,,,,,,,32.0,52.0,1011.0,2.5,Good,9,Autumn,Hot
2618,2025-09-21 14:00:00,81.0,"Kuala Selangor, Selangor, Malaysia",3.321308,101.256242,81.0,31.0,,,,,34.1,69.2,1007.8,1.2,Moderate,9,Autumn,Hot
2598,2025-09-21 14:00:00,61.0,"Tanjung Malim, Perak, Malaysia",3.687758,101.524494,61.0,20.0,0.2,0.4,0.1,14.7,34.1,69.2,1007.8,1.2,Moderate,9,Autumn,Hot
12796,2025-09-21 14:00:00,21.0,"Lat Yai,Mueang,Samut Songkhram, Thailand (ต.ลาดใหญ่ อ.เมือง จ.สมุทรสงคราม)",13.428581,100.024664,21.0,12.0,4.1,0.6,0.1,4.0,33.0,52.0,1006.0,5.1,Good,9,Autumn,Hot
1817,2025-09-21 14:00:00,37.0,"Na Phralan Police Station Saraburi, Thailand (สถานีตำรวจภูธรหน้าพระลาน สระบุรี)",14.685833,100.871996,37.0,26.0,20.8,0.6,0.1,1.6,32.7,65.0,1005.2,2.0,Good,9,Autumn,Hot
1813,2025-09-21 14:00:00,80.0,"Nonsi Witthaya School, Bangkok, Thailand (โรงเรียนนนทรีวิทยา)",13.70806667,100.5473333,80.0,56.0,15.0,,0.1,,32.0,59.0,1006.0,3.6,Moderate,9,Autumn,Hot
1829,2025-09-21 14:00:00,12.0,"Natural Resources and Environment Office, Mae Hongson, Thailand (สำนักงานทรัพยากรธรรมชาติและสิ่งแวดล้อมจังหวัดแม่ฮ่องสอน)",19.30455,97.97165,12.0,12.0,3.5,,0.1,4.8,32.2,60.5,975.5,1.0,Good,9,Autumn,Hot
8114,2025-09-21 11:00:00,2.0,"Temburong, Brunei",4.6204128,115.141484,,,,,,,32.0,52.0,1011.0,2.5,Good,9,Autumn,Hot
1664,2025-09-21 15:00:00,50.0,"East, Singapore",1.3645924,103.9477547,50.0,20.0,,2.0,4.0,13.0,32.0,62.0,1008.0,4.6,Good,9,Autumn,Hot
8288,2025-09-21 01:00:00,45.0,"Pekanbaru, Indonesia",0.46667,101.4666,45.0,,,,,,23.6,95.3,1005.8,2.5,Good,9,Autumn,Mild
2599,2025-09-21 14:00:00,34.0,"Kangar, Perlis, Malaysia",6.429922,100.211069,34.0,12.0,0.1,0.6,0.1,6.1,33.0,59.0,1009.0,3.0,Good,9,Autumn,Hot
1826,2025-09-21 12:00:00,29.0,"Regional Environmental Office 14, Surat Thani, Thailand (สำนักงานสิ่งแวดล้อมภาคที่ 14)",9.126017,99.325145,29.0,48.0,,0.6,0.1,4.4,33.7,62.0,1010.6,2.0,Good,9,Autumn,Hot
13630,2025-09-21 12:00:00,31.0,"Meteorological stations, Nakhon Phanom, Thailand (สถานีอุตุนิยมวิทยานครพนม)",17.412345,104.7786123,31.0,12.0,8.7,0.6,0.1,9.5,32.0,7.4,990.2,0.5,Good,9,Autumn,Hot
2627,2025-09-21 14:00:00,15.0,"Labuan, Wilayah Persekutuan, Malaysia",5.298107,115.232106,15.0,7.0,0.3,1.6,0.1,13.1,32.0,55.0,1009.0,3.0,Good,9,Autumn,Hot
9496,2025-09-21 14:00:00,52.0,"Rompin, Pahang, Malaysia",2.926645,103.419198,52.0,18.0,,,,,31.0,74.0,1010.0,1.0,Moderate,9,Autumn,Hot
9497,2025-09-21 14:00:00,38.0,"Temerloh, Pahang, Malaysia",3.471603,102.376406,38.0,15.0,1.6,0.8,0.1,19.3,32.0,66.0,1009.0,2.5,Good,9,Autumn,Hot
2606,2025-09-21 14:00:00,23.0,"Tawau, Sabah, Malaysia",4.249786,117.935864,23.0,11.0,0.3,0.6,0.1,6.8,33.0,59.0,1008.0,4.6,Good,9,Autumn,Hot
14642,2025-09-21 14:00:00,21.0,"Vũng Tàu/Ngã tư Giếng nước - Tp.Vũng Tàu, Vietnam",10.367976,107.0844,21.0,18.0,2.0,8.0,3.0,1.0,32.3,68.0,1003.6,3.5,Good,9,Autumn,Hot
13631,2025-09-21 14:00:00,19.0,"Meteorological stations, Sakon Nakhon, Thailand (สถานีอุตุนิยมวิทยาสกลนคร)",17.15662,104.133216,19.0,9.0,,,,,33.6,60.8,988.4,0.5,Good,9,Autumn,Hot
2581,2025-09-21 14:00:00,8.0,"Alor Setar, Kedah, Malaysia",6.137244,100.346815,2.0,5.0,0.8,0.8,0.1,7.7,33.0,59.0,1009.0,3.0,Good,9,Autumn,Hot
2616,2025-09-21 14:00:00,15.0,"Sri Aman, Sarawak, Malaysia",1.219656,111.464792,15.0,6.0,,,,,32.0,66.0,1010.0,1.5,Good,9,Autumn,Hot
13648,2025-09-21 01:00:00,23.0,"Mempawah, Indonesia",0.124,110.456,23.0,,,,,,,,,,Good,9,Autumn,Unknown
2585,2025-09-21 14:00:00,19.0,"Tanah Merah, Kelantan, Malaysia",5.811172,102.1345,19.0,9.0,0.9,0.8,0.1,6.5,32.0,59.0,1009.0,3.6,Good,9,Autumn,Hot
14640,2025-09-21 14:00:00,39.0,"Quảng Bình/Khu kinh tế Hòn La, Vietnam",17.932938,106.49662,20.0,39.0,,1.0,5.0,,31.1,69.2,1006.9,1.0,Good,9,Autumn,Hot
1849,2025-09-21 14:00:00,28.0,"General Education Office, Chonburi, Thailand (สำนักงานสามัญศึกษาชลบุรี)",13.35461667,100.9792167,28.0,33.0,9.3,1.1,,6.0,32.0,59.0,1006.0,3.6,Good,9,Autumn,Hot
2608,2025-09-21 14:00:00,48.0,"ILP Miri, Sarawak, Malaysia",4.494791,114.043416,48.0,16.0,,,,,33.0,52.0,1008.0,2.5,Good,9,Autumn,Hot
2604,2025-09-21 14:00:00,23.0,"Kota Kinabalu, Sabah, Malaysia",5.89372,116.04327,23.0,11.0,1.1,0.5,0.1,7.8,33.0,66.0,1008.0,1.5,Good,9,Autumn,Hot
9556,2025-09-21 14:00:00,38.0,"Kota Bharu, Kelantan, Malaysia",6.147431,102.249236,38.0,15.0,0.7,0.2,0.1,10.0,32.0,59.0,1009.0,3.6,Good,9,Autumn,Hot
2600,2025-09-21 14:00:00,54.0,"Perai, Pulau Pinang, Malaysia",5.329358,100.443475,54.0,19.0,1.0,0.5,0.1,13.4,31.0,62.0,1009.0,2.5,Moderate,9,Autumn,Hot
13628,2025-09-21 14:00:00,35.0,"Polytechnic College, Trang, Thailand (วิทยาลัยสารพัดช่างตรัง)",7.570238,99.588743,35.0,13.0,0.6,0.6,0.1,,31.0,66.0,1008.0,3.6,Good,9,Autumn,Hot
2615,2025-09-21 14:00:00,40.0,"Sibu, Sarawak, Malaysia",2.314408,111.831916,40.0,13.0,0.8,0.4,0.1,6.1,29.0,74.0,1010.0,1.5,Good,9,Autumn,Hot
2626,2025-09-21 14:00:00,145.0,"Cheras,Kuala Lumpur, Wilayah Persekutuan, Malaysia",3.106236,101.717917,145.0,53.0,1.8,1.9,0.1,33.1,33.0,62.0,1009.0,4.6,Unhealthy for Sensitive,9,Autumn,Hot
13756,2025-09-20 16:00:00,3.0,"Tp Hồ Chí Minh/Đường Nguyễn Văn Tạo, Ấp 3, Nhà Bè - KTTV - Trạm cảm biến, Vietnam",10.65961,106.727916,2.0,3.0,,,,,32.3,67.3,1004.0,4.8,Good,9,Autumn,Hot
9488,2025-09-21 14:00:00,79.0,"Kulim Hi-Tech, Kedah, Malaysia",5.401688,100.58968,79.0,27.0,1.5,0.6,,,31.0,62.0,1009.0,2.5,Moderate,9,Autumn,Hot
2607,2025-09-21 14:00:00,25.0,"Bintulu, Sarawak, Malaysia",3.177084,113.041091,25.0,9.0,0.9,0.5,0.1,3.9,31.0,66.0,1009.0,2.0,Good,9,Autumn,Hot
2580,2025-09-21 14:00:00,49.0,"Pasir Gudang, Johor, Malaysia",1.470122,103.893456,49.0,19.0,0.6,0.5,0.1,16.3,32.0,59.0,1009.0,4.6,Good,9,Autumn,Hot
2622,2025-09-21 14:00:00,23.0,"Kemaman, Terengganu, Malaysia",4.262121,103.425778,23.0,9.0,0.7,0.7,,,32.0,66.0,1009.0,2.5,Good,9,Autumn,Hot
7086,2025-09-21 14:00:00,32.0,"Yalong Bay, Sanya (三亚亚龙湾 )",18.224495,109.62038,25.0,17.0,1.4,8.2,2.2,31.7,31.0,74.0,1005.0,2.5,Good,9,Autumn,Hot
1828,2025-09-21 09:00:00,45.0,"Natural Resources and Environment Office, Chiangrai, Thailand (สำนักงานทรัพยากรธรรมชาติและสิ่งแวดล้อมจังหวัดเชียงราย)",19.909217,99.823467,45.0,16.0,0.6,,0.1,12.7,23.3,99.0,973.3,0.3,Good,9,Autumn,Mild
9499,2025-09-21 14:00:00,15.0,"Kimanis, Sabah, Malaysia",5.538225,115.850556,15.0,8.0,1.1,0.2,,,33.0,66.0,1008.0,1.5,Good,9,Autumn,Hot
2577,2025-09-21 14:00:00,55.0,"Kota Tinggi, Johor, Malaysia",1.564056,104.225306,55.0,15.0,0.3,1.3,0.1,15.1,31.7,66.9,1007.8,4.1,Moderate,9,Autumn,Hot
2592,2025-09-21 14:00:00,37.0,"Indera Mahkota, Kuantan, Pahang, Malaysia",3.819217,103.29655,37.0,11.0,0.2,0.3,0.1,14.8,32.0,66.0,1009.0,2.5,Good,9,Autumn,Hot
2588,2025-09-21 14:00:00,113.0,"Nilai, Negeri Sembilan, Malaysia",2.821692,101.811486,113.0,45.0,2.0,0.9,0.1,21.5,31.0,66.0,1008.0,2.0,Unhealthy for Sensitive,9,Autumn,Hot
2621,2025-09-21 14:00:00,112.0,"Shah Alam, Selangor, Malaysia",3.104717,101.556222,112.0,50.0,5.4,2.5,0.1,16.2,33.0,62.0,1009.0,4.6,Unhealthy for Sensitive,9,Autumn,Hot
4474,2025-09-21 14:00:00,63.0,"City first secondary school sub-station , Danzhou (儋州市第一中学子站)",19.5088,109.5037,63.0,26.0,1.4,3.1,2.7,28.9,33.1,61.1,986.2,1.0,Moderate,9,Autumn,Hot
2617,2025-09-21 14:00:00,103.0,"Banting, Selangor, Malaysia",2.816689,101.623158,103.0,41.0,1.8,1.6,0.1,24.9,31.0,66.0,1008.0,2.0,Unhealthy for Sensitive,9,Autumn,Hot
2620,2025-09-21 14:00:00,96.0,"Petaling Jaya, Selangor, Malaysia",3.133169,101.608011,96.0,37.0,0.8,0.9,0.1,27.2,33.0,62.0,1009.0,4.6,Moderate,9,Autumn,Hot
8287,2025-09-21 01:00:00,154.0,"Medan, Indonesia",3.59,98.85,154.0,,,,,,24.4,98.2,1009.1,1.5,Unhealthy,9,Autumn,Mild
8634,2025-09-21 14:00:00,59.0,"hóngqí zhōng xuézǐ station, Tunchangxian (屯昌县红旗中学子站)",19.37706,110.1108,59.0,13.0,1.4,2.1,6.3,35.8,33.0,59.0,1005.0,3.6,Moderate,9,Autumn,Hot
1867,2025-09-21 14:00:00,19.0,"Municipality Office, Nan, Thailand (สำนักงานเทศบาลเมืองน่าน)",18.7888833,100.7763166,19.0,67.0,0.6,0.6,0.1,6.4,26.7,92.6,984.1,1.0,Good,9,Autumn,Hot
2611,2025-09-21 14:00:00,19.0,"Limbang, Sarawak, Malaysia",4.758891,115.013667,19.0,7.0,,,,,34.0,49.0,1009.0,2.8,Good,9,Autumn,Hot
2605,2025-09-21 14:00:00,13.0,"Sandakan, Sabah, Malaysia",5.864467,118.091089,13.0,8.0,1.1,0.6,,11.8,33.0,70.0,1007.0,1.5,Good,9,Autumn,Hot
2582,2025-09-21 14:00:00,47.0,"Bakar Arang, Sg. Petani, Kedah, Malaysia",5.629631,100.467771,47.0,16.0,1.1,0.8,0.1,7.4,31.0,62.0,1009.0,2.5,Good,9,Autumn,Hot
7089,2025-09-21 14:00:00,25.0,"shì běi shī dà wàn níng fùzhōng, Wanning (万宁市北师大万宁附中)",18.8297,110.3979,25.0,7.0,1.0,2.6,3.6,20.8,26.5,92.0,1003.0,1.0,Good,9,Autumn,Hot
1843,2025-09-21 14:00:00,17.0,"National Housing Authority Bangplee, Samut Prakan, Thailand (การเคหะชุมชนบางพลี)",13.5705,100.7862867,17.0,43.0,9.3,0.6,0.1,13.4,32.0,59.0,1006.0,3.6,Good,9,Autumn,Hot
1814,2025-09-21 14:00:00,70.0,"Highway District, Samut Sakhon, Thailand (แขวงการทางสมุทรสาคร)",13.7054879,100.315622,70.0,51.0,6.4,0.6,0.1,5.2,33.5,53.5,1006.5,4.6,Moderate,9,Autumn,Hot
9491,2025-09-21 14:00:00,54.0,"Alor Gajah, Melaka, Malaysia",2.370925,102.224592,54.0,19.0,,,,,32.0,70.0,1011.0,3.0,Moderate,9,Autumn,Hot
13687,2025-09-21 13:00:00,16.0,"Cần Thơ/Ninh Kiều - KTTV - Trạm cảm biến, Vietnam",10.026977,105.768249,9.0,16.0,1.0,,2.0,10.0,32.0,70.0,1007.0,5.1,Good,9,Autumn,Hot
2594,2025-09-21 14:00:00,45.0,"Jalan Tasek, Ipoh, Perak, Malaysia",4.629444,101.11665,45.0,17.0,2.9,0.5,0.1,12.1,34.0,46.0,1009.0,1.0,Good,9,Autumn,Hot
12797,2025-09-21 14:00:00,27.0,"Nai Mueang,Mueang,Ubon Ratchathani , Thailand (ต.ในเมือง อ.เมือง จ.อุบลราชธานี)",15.245413,104.846219,27.0,13.0,,0.6,0.1,9.5,29.0,79.0,1005.0,5.6,Good,9,Autumn,Hot
5534,2025-09-21 14:00:00,57.0,"Pluakdaeng District Health Office, Thailand (สำนักงานสาธารณสุขอำเภอปลวกแดง)",12.97378333,101.21285,57.0,58.0,4.1,0.6,0.1,0.4,32.0,70.0,1006.0,5.6,Moderate,9,Autumn,Hot
12758,2025-09-21 13:00:00,26.0,"The Bhubing Palace Doi Buak Ha, Thailand (พระตำหนักภูพิงคราชนิเวศน์)",13.779873,100.646009,22.0,26.0,12.7,,,6.7,32.0,59.0,1006.0,3.6,Good,9,Autumn,Hot
8645,2025-09-21 01:00:00,64.0,"Batam, Indonesia",1.124,104.126,64.0,,,,,,28.4,82.2,1009.2,6.0,Moderate,9,Autumn,Hot
4480,2025-09-21 14:00:00,22.0,"Land Environment and Resources Bureau , Ledongxian (乐东县国土环境资源局)",18.7422,109.1777,21.0,9.0,1.0,2.6,5.6,22.4,31.0,74.0,1005.0,2.5,Good,9,Autumn,Hot
13637,2025-09-21 14:00:00,21.0,"Nong Prajak Public Park, Udon Thani, Thailand (สวนสาธารณะหนองประจักษ์ อุดรธานี)",17.414174,102.780926,21.0,9.0,,,,,28.0,58.0,1006.0,1.0,Good,9,Autumn,Hot
9587,2025-09-21 14:00:00,5.0,"Chiangrai - Gaia Station 07, Thailand",19.858547,99.90148,5.3,1.6,,,,,25.0,94.0,1009.0,2.5,Good,9,Autumn,Hot
5254,2025-09-21 14:00:00,25.0,"Commission compound Archives , Lingaoxian (临高县委大院档案馆)",19.91205,109.69053,25.0,10.0,1.0,1.6,2.4,23.6,33.0,59.0,1005.0,3.6,Good,9,Autumn,Hot
13635,2025-09-21 14:00:00,29.0,"Chom Nan Chaloem Phrakiat Public Park, Thailand (สวนชมน่านเฉลิมพระเกียรติ)",16.820833,100.258056,29.0,15.0,1.2,3.2,0.1,,31.6,67.3,1001.2,1.5,Good,9,Autumn,Hot
8324,2025-09-21 14:00:00,23.0,"Health Promotion Hospital Sob Pad, Lampang, Thailand (โรงพยาบาลส่งเสริมสุขภาพตำบลบ้านสบป้าด ลำปาง)",18.2508166,99.76395,23.0,11.0,0.6,1.1,0.1,6.4,31.3,67.2,979.0,1.0,Good,9,Autumn,Hot
8325,2025-09-21 14:00:00,23.0,"Health Promotion Hospital Ta See, Lampang, Thailand (โรงพยาบาลส่งเสริมสุขภาพตำบลบ้านท่าสี ลำปาง)",18.4267833,99.7576333,23.0,12.0,1.2,0.6,0.1,0.8,31.3,67.2,979.0,1.0,Good,9,Autumn,Hot
13505,2025-09-21 01:00:00,59.0,"Tanjung Harapan, Indonesia",2.83,117.36,59.0,,,,,,25.0,91.4,1010.1,3.0,Moderate,9,Autumn,Hot
9498,2025-09-21 15:00:00,53.0,"Besut, Terengganu, Malaysia",5.748449,102.515632,53.0,18.0,0.7,1.1,0.1,15.5,31.0,58.0,1007.0,4.1,Moderate,9,Autumn,Hot
8631,2025-09-21 14:00:00,31.0,"Haitang Bay, Sanya (三亚海棠湾)",18.29029,109.71186,21.0,5.0,3.7,2.1,3.6,30.5,31.0,74.0,1005.0,2.5,Good,9,Autumn,Hot
1825,2025-09-21 14:00:00,24.0,"Nakhonsawan Irrigation , Nakhon Sawan, Thailand (โครงการชลประทานนครสวรรค์)",15.68623,100.110556,24.0,70.0,1.2,0.6,0.1,14.2,33.8,62.0,1002.3,1.5,Good,9,Autumn,Hot
9494,2025-09-21 15:00:00,63.0,"Kluang, Johor, Malaysia",2.037882,103.312063,63.0,20.0,,,,,28.5,76.5,1008.0,2.3,Moderate,9,Autumn,Hot
14643,2025-09-21 14:00:00,113.0,"Vũng Tàu/Tiểu học Tóc Tiên - TX.Phú Mỹ, Vietnam",10.589853,107.131743,113.0,60.0,,21.0,4.0,13.0,32.0,66.0,1005.0,5.1,Unhealthy for Sensitive,9,Autumn,Hot
13662,2025-09-21 14:00:00,13.0,"Trà Vinh/xã Dân Thành, TX Duyên Hải, Vietnam",9.599143,106.51985,13.0,8.0,9.0,,,,,,,,Good,9,Autumn,Unknown
9490,2025-09-21 15:00:00,49.0,"Balik Pulau, Pulau Pinang, Malaysia",5.337598,100.214721,49.0,15.0,0.2,0.6,0.1,8.6,32.0,62.0,1007.0,3.0,Good,9,Autumn,Hot
1852,2025-09-16 17:00:00,28.0,"Hat Yai Municipality, Songkhla, Thailand (เทศบาลนครหาดใหญ่)",7.020434,100.484088,28.0,29.0,,,,,28.1,8.4,1004.2,0.5,Good,9,Autumn,Hot
13636,2025-09-21 14:00:00,50.0,"72nd Anniversary King Bhumibol Public Park, Uttaradit, Thailand (สวนมหามงคลเฉลิมพระชนมพรรษา 6 รอบ 5 ธันวาคม 2552 อุตรดิตถ์)",17.631352,100.09896,50.0,17.0,2.9,,,9.1,31.0,82.7,999.8,1.5,Good,9,Autumn,Hot
9492,2025-09-21 15:00:00,69.0,"Segamat, Johor, Malaysia",2.493914,102.862694,69.0,23.0,6.0,1.8,0.1,24.4,32.0,70.0,1009.0,3.0,Moderate,9,Autumn,Hot
13632,2025-09-21 14:00:00,36.0,"Trat Provincial Central Stadium, Thailand (สนามกีฬากลางจังหวัดตราด)",12.234862,102.523721,36.0,40.0,0.6,0.6,0.1,19.8,30.0,79.0,1008.0,6.1,Good,9,Autumn,Hot
5193,2025-09-21 14:00:00,25.0,Qionghai (琼海),19.258404,110.47465,21.0,10.0,1.9,1.1,3.3,24.8,33.0,59.0,1005.0,3.6,Good,9,Autumn,Hot
1815,2025-09-21 14:00:00,14.0,"Ayutthaya Witthayalai School, Ayutthaya, Thailand (โรงเรียนอยุธยาวิทยาลัย)",14.35222,100.565325,14.0,64.0,3.5,0.6,0.1,5.2,32.7,64.5,1005.0,1.5,Good,9,Autumn,Hot
9501,2025-09-21 15:00:00,18.0,"Mukah, Sarawak, Malaysia",2.883238,112.019742,18.0,8.0,,,,,30.0,62.0,1007.0,2.0,Good,9,Autumn,Hot
12760,2025-09-21 14:00:00,28.0,"Betong, Thailand (ต.เบตง อ.เบตง จ.ยะลา)",5.763873,101.067903,28.0,,,,,,31.0,66.0,1007.0,4.1,Good,9,Autumn,Hot
5191,2025-09-21 14:00:00,24.0,Wuzhishan (五指山),18.775147,109.516925,9.0,11.0,1.0,2.6,5.7,24.4,31.0,74.0,1005.0,2.5,Good,9,Autumn,Hot
6817,2025-09-21 14:00:00,55.0,"City Hall, Chiangmai, Thailand (ศาลากลางเชียงใหม่)",18.840732,98.96978,55.0,91.0,7.5,0.6,,14.6,32.0,59.0,1006.0,2.0,Moderate,9,Autumn,Hot
14893,2025-09-21 14:00:00,30.0,"Manila US Embassy, Philippines",14.57711,120.9778,30.0,,,,,,31.0,74.0,1005.0,7.2,Good,9,Autumn,Hot
5266,2025-09-20 21:00:00,13.0,"Kapolei, Hawaii, USA",21.32374479,-158.0886127,13.0,10.0,2.9,,1.2,,26.0,80.5,1017.2,0.9,Good,9,Autumn,Hot
5268,2025-09-20 21:00:00,18.0,"Honolulu, Hawaii, USA",21.30758,-157.85542,18.0,12.0,,,3.4,,27.0,74.0,1017.2,1.0,Good,9,Autumn,Hot
7619,2025-09-19 20:00:00,,"Niumalu, Hawaii, USA",21.9495,-159.365,,,,0.1,,,27.0,78.0,1017.2,2.5,Unknown,9,Autumn,Hot
9613,2025-09-20 21:00:00,21.0,"Kahului, Hawaii, USA",20.869444,-156.492417,21.0,,,,,,25.9,79.7,1020.2,2.5,Good,9,Autumn,Hot
302,2025-09-20 23:00:00,38.0,"Folsom-Natoma Street, Sacramento, California",38.68329,-121.16444,38.0,,1.9,,,20.8,21.1,66.0,1012.8,0.2,Good,9,Autumn,Mild
231,2025-09-20 23:00:00,42.0,"Grass Valley-Litton Building, Nevada, California",39.23352,-121.05567,20.0,,,,,41.6,15.0,80.6,1011.4,0.2,Good,9,Autumn,Mild
296,2025-09-20 23:00:00,20.0,"Chico - East Avenue, Butte, California",39.76168,-121.84047,17.0,20.0,6.7,,,20.0,20.8,69.5,1011.8,0.5,Good,9,Autumn,Mild
328,2025-09-20 23:00:00,25.0,"Hollister-Fairview Road, San Benito, California",36.84343,-121.3621,25.0,17.0,,,,13.6,16.6,76.5,1015.5,0.2,Good,9,Autumn,Mild
5361,2025-09-20 23:00:00,38.0,"Auburn-11645 Atwood Road, Placer, California",38.93568,-121.09959,38.0,,,,,34.4,21.0,56.0,1015.3,2.9,Good,9,Autumn,Mild
257,2025-09-20 23:00:00,34.0,"Atascadero-Lewis Avenue, San Luis Obispo, California",35.49153,-120.66799,34.0,22.0,3.3,,,17.6,15.7,80.0,1014.4,2.4,Good,9,Autumn,Mild
239,2025-09-20 23:00:00,19.0,"King City - Pearl, Monterey, California",36.20902,-121.12596,17.0,13.0,,,,19.2,15.1,69.4,1012.0,0.5,Good,9,Autumn,Mild
4613,2025-09-20 22:00:00,35.0,"Madera City, Madera, California",36.95326,-120.03419,21.0,30.0,,,,35.2,23.0,60.0,1013.2,3.6,Good,9,Autumn,Mild
229,2025-09-20 23:00:00,23.0,"San Andreas-Gold Strike Road, Calaveras, California",38.20185,-120.68028,17.0,16.0,,,,23.3,20.1,62.6,1006.1,0.2,Good,9,Autumn,Mild
310,2025-09-20 22:00:00,22.0,"Turlock-S Minaret Street, Stanislaus, California",37.48822,-120.83592,13.0,12.0,4.5,,,22.4,23.0,56.0,1012.8,3.0,Good,9,Autumn,Mild
284,2025-09-20 22:00:00,30.0,"Manteca AMS, San Joaquin, California",37.79338,-121.24779,30.0,17.0,,,,,21.2,69.3,1012.5,0.2,Good,9,Autumn,Mild
326,2025-09-20 23:00:00,22.0,"Ukiah - Library, Mendocino, California",39.15047,-123.20655,22.0,,,,,,18.0,72.0,1014.8,1.5,Good,9,Autumn,Mild
282,2025-09-20 22:00:00,33.0,"Madera - Pump Yard, Madera, California",36.86719,-120.01011,,,,,,32.8,21.1,44.6,1013.7,0.3,Good,9,Autumn,Mild
3896,2025-09-20 22:00:00,18.0,"Concord, Contra Costa, California",37.936,-122.0262,17.0,,2.9,0.5,4.5,17.6,19.2,73.1,1014.2,0.5,Good,9,Autumn,Mild
286,2025-09-20 22:00:00,34.0,"Tracy - Airport, San Joaquin, California",37.68268,-121.44238,34.0,7.0,0.8,,,23.3,24.6,53.3,1011.3,0.6,Good,9,Autumn,Mild
9604,2025-09-20 23:00:00,19.0,"Sloughhouse, Sacramento, California",38.49444,-121.21115,17.0,,,,,19.2,19.1,71.0,1012.3,0.7,Good,9,Autumn,Mild
5362,2025-09-20 23:00:00,30.0,"Lincoln-1445 1st Street, Placer, California",38.88563,-121.30208,30.0,,,,,9.6,19.3,69.6,1012.0,,Good,9,Autumn,Mild
307,2025-09-20 23:00:00,40.0,"Yuba City, Sutter, California",39.13876,-121.61872,40.0,40.0,8.3,,,16.0,21.7,69.4,1011.9,2.0,Good,9,Autumn,Mild
301,2025-09-20 23:00:00,15.0,"Elk Grove - Bruceville Road, Sacramento, California",38.30256,-121.42083,9.0,10.0,1.9,,,14.5,19.8,73.2,1012.1,1.1,Good,9,Autumn,Mild
308,2025-09-20 23:00:00,28.0,"Davis-UCD Campus, Yolo, California",38.53455,-121.7734,28.0,,6.7,,,9.6,19.0,68.0,1013.2,2.5,Good,9,Autumn,Mild
309,2025-09-20 23:00:00,38.0,"Woodland-Gibson Road, Yolo, California",38.66121,-121.73269,38.0,,,,,14.5,21.5,63.7,1012.5,0.7,Good,9,Autumn,Mild
299,2025-09-20 23:00:00,30.0,"Willows-Colusa, Glenn, California",39.53387,-122.19083,30.0,27.0,,,,20.8,20.8,69.5,1011.8,0.5,Good,9,Autumn,Mild
3328,2025-09-20 23:00:00,21.0,"Salinas #3, Monterey, California",36.69426,-121.62327,21.0,,1.0,,3.4,17.6,17.0,82.0,1014.5,2.5,Good,9,Autumn,Mild
3901,2025-09-20 23:00:00,25.0,"Redwood City, San Mateo, California",37.48293,-122.20348,25.0,,,,,,16.1,87.6,1017.7,0.1,Good,9,Autumn,Mild
3902,2025-09-20 22:00:00,21.0,"San Jose - Jackson St, Santa Clara, California",37.34849,-121.89494,21.0,,3.6,,2.3,19.2,19.0,82.0,1014.8,1.5,Good,9,Autumn,Mild
3900,2025-09-20 23:00:00,21.0,"San Francisco-Arkansas Street, San Francisco, California",37.76595,-122.39902,21.0,,2.9,,1.2,18.4,16.6,90.6,1013.9,1.4,Good,9,Autumn,Mild
5366,2025-09-20 23:00:00,55.0,"Rio Vista-YS, Solano, California",38.167275,-121.6884167,55.0,,,,,,21.6,64.6,1013.5,2.0,Moderate,9,Autumn,Mild
261,2025-09-20 22:00:00,38.0,"Lompoc-South H Street, Santa Barbara, California",34.63782,-120.4575,38.0,13.0,,,,23.3,17.0,100.0,1015.2,3.0,Good,9,Autumn,Mild
278,2025-09-20 22:00:00,55.0,"Tranquility, Fresno, California",36.63434,-120.38234,55.0,,,,,22.4,21.1,44.6,1013.7,0.3,Moderate,9,Autumn,Mild
240,2025-09-20 23:00:00,25.0,"Santa Cruz - Soquel Avenue, Santa Cruz, California",36.98401,-121.99097,25.0,,,,,16.8,16.6,89.0,,1.5,Good,9,Autumn,Mild
287,2025-09-20 23:00:00,34.0,"Modesto-14th Street, Stanislaus, California",37.64217,-120.99421,34.0,24.0,,,2.3,16.8,22.0,64.0,1012.8,3.0,Good,9,Autumn,Mild
9061,2025-09-20 22:00:00,46.0,"Berkeley-Aquatic Park, Alameda, California",37.864731,-122.302703,46.0,,10.0,,3.4,10.4,17.4,88.3,1015.2,1.3,Good,9,Autumn,Mild
3903,2025-09-20 22:00:00,34.0,"Vallejo, Solano, California",38.10251,-122.238,34.0,,1.4,0.5,3.4,22.4,25.4,70.5,1016.4,7.2,Good,9,Autumn,Hot
306,2025-09-20 23:00:00,38.0,"Vacaville-Ulatis Drive, Solano, California",38.35655,-121.94986,38.0,,,,,16.8,19.0,68.0,1012.8,2.0,Good,9,Autumn,Mild
297,2025-09-20 23:00:00,13.0,"Gridley, Butte, California",39.32756,-121.66881,13.0,,,,,,24.0,53.0,1013.2,2.0,Good,9,Autumn,Mild
277,2025-09-20 22:00:00,50.0,"Huron - 4th Street, Fresno, California",36.19865,-120.10117,50.0,,,,,,24.0,60.0,1012.8,2.5,Good,9,Autumn,Mild
238,2025-09-20 23:00:00,9.0,"Carmel Valley-Ford Road, Monterey, California",36.48187,-121.73333,9.0,,,,,8.8,16.3,63.0,1015.2,0.2,Good,9,Autumn,Mild
232,2025-09-20 23:00:00,22.0,"Truckee - Fire Station, Nevada, California",39.32782,-120.18459,22.0,,,,,,9.8,87.6,1022.8,0.2,Good,9,Autumn,Cold
8355,2025-09-20 22:00:00,34.0,"San Jose-Knox Avenue, Santa Clara, California",37.338202,-121.849892,34.0,,10.4,,4.5,,18.8,79.0,1013.2,0.1,Good,9,Autumn,Mild
298,2025-09-20 23:00:00,43.0,"Colusa-Sunrise Blvd, Colusa, California",39.18919,-121.99887,43.0,27.0,,,,18.4,21.7,69.4,1011.9,2.0,Good,9,Autumn,Mild
3898,2025-09-20 23:00:00,17.0,"San Rafael, Marin, California",37.9723,-122.52011,9.0,,2.4,,2.3,16.8,17.2,83.7,1014.2,0.5,Good,9,Autumn,Mild
6455,2025-09-20 22:00:00,11.0,"Sebastopol-103 Morris Street, Sonoma, California",38.403765,-122.818294,9.0,,2.3,,4.5,11.2,14.0,81.0,1014.7,,Good,9,Autumn,Mild
5358,2025-09-20 23:00:00,40.0,"Portola - Gulling Street, Plumas, California",39.81336,-120.47069,40.0,,,,,,9.4,83.0,1020.5,0.5,Good,9,Autumn,Cold
7380,2025-09-21 00:00:00,69.0,"Adeq-dsr, Arkansas, USA",34.6811,-92.3283,69.0,,,,,,23.0,88.0,1015.5,1.5,Moderate,9,Autumn,Mild
9632,2025-09-20 23:00:00,5.0,"Rifle PM, Colorado, USA",39.5318,-107.78229,5.0,,,,,7.0,17.0,51.0,1021.3,3.6,Good,9,Autumn,Mild
268,2025-09-20 23:00:00,22.0,"Alpine-Victoria Drive, San Diego, California",32.84231,-116.76784,22.0,10.0,,,,22.4,18.8,76.0,1018.6,0.6,Good,9,Autumn,Mild
388,2025-09-21 01:00:00,38.0,"Las Pintas, Guadalajara, Mexico",20.5767,-103.3265222,38.0,35.0,9.8,,11.8,17.1,20.0,88.0,1022.3,2.0,Good,9,Autumn,Mild
180,2025-09-21 00:00:00,55.0,"Conroe Relocated, Houston, Texas",30.3503017,-95.4251278,55.0,,3.9,,,11.2,26.4444,94.0,1015.2,3.4,Moderate,9,Autumn,Hot
6277,2025-09-20 22:00:00,14.0,"Santa Teresa, New Mexico, USA",31.78778,-106.68278,8.0,14.0,5.6,,,8.8,22.2,76.0,1023.6,,Good,9,Autumn,Mild
7474,2025-09-21 01:00:00,21.0,"Roland, Oklahoma, USA",35.408138,-94.524414,17.0,,3.8,,,20.8,21.3,76.5,1015.9,0.7,Good,9,Autumn,Mild
10950,2025-09-21 01:00:00,19.0,"Cadereyta, Monterrey, Nuevo León, Mexico",25.60055556,-99.99416667,9.0,19.0,3.0,4.5,8.5,12.8,24.0,94.0,1015.9,1.0,Good,9,Autumn,Mild
217,2025-09-21 00:00:00,23.0,"Austin Audubon Society, Austin, Texas",30.4831681,-97.8723005,23.0,,,,,19.2,27.6667,3.5,976.3,3.9,Good,9,Autumn,Hot
6276,2025-09-20 23:00:00,6.0,"Deming Airport, New Mexico, USA",32.255833,-107.72266,,6.0,,,,,19.0,72.0,1019.2,2.0,Good,9,Autumn,Mild
8391,2025-09-21 00:00:00,92.0,"Nogales Post Office, Arizona, USA",31.337204,-110.936722,77.0,92.0,,,,,22.0,73.0,1018.2,1.5,Moderate,9,Autumn,Mild
254,2025-09-20 23:00:00,29.0,"Lake Gregory (Crestline), San Bernardino",34.24313,-117.2723,29.0,,,,,28.9,17.2,42.0,1005.3,0.6,Good,9,Autumn,Mild
10164,2025-09-20 23:00:00,43.0,"San Luis De La Paz Presidencia Municipal, Mexico",21.29586111,-100.5233056,43.0,,,,,,15.6,89.4,1009.1,1.8,Good,9,Autumn,Mild
6506,2025-09-20 22:00:00,30.0,"Secundaria, Mexico",20.692413,-101.364861,,18.0,,0.3,30.4,16.8,21.0,52.0,1024.3,9.7,Good,9,Autumn,Mild
9190,2025-09-21 01:00:00,23.0,"Heritage Park, Kansas, USA",38.8386,-94.7464,23.0,12.0,,,,12.8,19.0,93.0,1014.5,1.5,Good,9,Autumn,Mild
9194,2025-09-21 01:00:00,35.0,"Copan, Oklahoma, USA",36.908115,-95.88235,10.0,5.0,,,,35.2,20.2,77.0,1013.3,6.0,Good,9,Autumn,Mild
6321,2025-09-20 23:00:00,9.0,"PM2.5, Grand Jct. Powell, Colorado, USA",39.063798,-108.561173,9.0,5.0,,,1.0,10.0,21.6667,55.0,1011.1,4.0,Good,9,Autumn,Mild
291,2025-09-20 23:00:00,20.0,"Calexico-Ethel Street, Imperial, California",32.67618,-115.48307,7.0,20.0,8.0,0.2,,19.2,31.9,37.5,1013.4,1.5,Good,9,Autumn,Hot
9603,2025-09-20 23:00:00,53.0,"Sequoia National Park-Ash Mountain, Tulare, California",36.48943,-118.82914,53.0,,,,,36.1,22.0,84.2,1012.3,1.2,Moderate,9,Autumn,Mild
6509,2025-09-20 23:00:00,61.0,"DIF, Mexico",20.558094,-101.204941,61.0,23.0,4.2,24.0,15.4,15.0,20.0,64.0,1025.0,3.0,Moderate,9,Autumn,Mild
7353,2025-09-21 00:00:00,54.0,"Forest Park, Missouri, USA",38.631057,-90.281144,54.0,,10.1,,4.5,,21.6,74.5,1015.2,0.1,Moderate,9,Autumn,Mild
13291,2025-09-21 00:00:00,11.0,"Industriales Potosinos Asociados, San Luis Potosí Estatal, San Luis Potosí, Mexico",22.15125,-100.9961111,9.0,11.0,7.5,,3.0,6.4,18.0,77.0,1025.3,2.0,Good,9,Autumn,Mild
8865,2025-09-21 01:00:00,13.0,"Durango, Durango, Mexico",24.03447,-104.64503,1.0,1.0,,,,13.4,20.0,82.0,1021.9,2.1,Good,9,Autumn,Mild
9152,2025-09-21 00:00:00,10.0,"Lubbock 12th Street, Lubbock, Texas",33.58553,-101.78698,10.0,,,,,,23.9444,57.0,1015.2,7.4,Good,9,Autumn,Mild
5956,2025-09-21 00:00:00,25.0,"Mesa, Maricopa, USA",33.41027778,-111.865,25.0,11.0,,,3.4,20.0,29.8,46.0,1009.7,0.5,Good,9,Autumn,Hot
7371,2025-09-21 01:00:00,22.0,"Tulsa, Oklahoma, USA",36.206699,-95.976402,14.0,7.0,6.8,0.2,1.2,21.6,19.4,95.0,1011.9,1.0,Good,9,Autumn,Mild
9189,2025-09-21 01:00:00,33.0,"WHlthDpt, Kansas, USA",37.7011,-97.3139,33.0,13.0,2.7,,,31.2,20.0,85.0,1014.8,1.2,Good,9,Autumn,Mild
9161,2025-09-21 01:00:00,51.0,"Tulancingo, Hidalgo, Mexico",20.08525,-98.36663889,51.0,28.0,8.7,3.6,7.0,6.2,24.0,94.0,1016.2,1.0,Moderate,9,Autumn,Mild
9170,2025-09-21 01:00:00,51.0,"Primaria Revolución, Atotonilco, Hidalgo, Mexico",20.00666667,-99.21888889,51.0,15.0,6.2,2.3,16.6,13.9,16.0,67.0,1027.0,2.5,Moderate,9,Autumn,Mild
13066,2025-09-20 23:00:00,10.0,"Mammoth Lakes-Gateway HC, Mono, California",37.64571,-118.96651,,10.0,,,,,10.8,76.0,1010.4,2.0,Good,9,Autumn,Mild
7639,2025-09-21 01:00:00,18.0,"Ponca City, Oklahoma, USA",36.697189,-97.081278,18.0,8.0,,,,,19.7,88.5,1010.5,1.5,Good,9,Autumn,Mild
270,2025-09-20 23:00:00,28.0,"El Cajon-Redwood Avenue, San Diego, California",32.7912,-116.9421,28.0,12.0,,,,17.6,19.4,89.0,1009.1,0.2,Good,9,Autumn,Mild
13231,2025-09-20 23:00:00,38.0,"North Hollywood, Los Angeles, California",34.18198,-118.36304,38.0,,8.5,,,12.8,20.0,82.0,1013.8,3.0,Good,9,Autumn,Mild
193,2025-09-21 00:00:00,30.0,"Socorro Hueco, El Paso, Texas",31.6675,-106.288,30.0,26.0,,,,26.4,23.8,58.5,1007.2,1.5,Good,9,Autumn,Mild
242,2025-09-20 23:00:00,47.0,"Glendora-Laurel, Los Angeles",34.14437,-117.85038,47.0,18.0,10.2,,3.4,6.4,18.8,82.0,1013.6,2.2,Good,9,Autumn,Mild
205,2025-09-21 00:00:00,30.0,"Denton Airport South, fort Worth, Dallas, Texas",33.2190564,-97.1962872,30.0,,6.6,,,22.4,28.2778,66.4,1014.2,1.5,Good,9,Autumn,Hot
9514,2025-09-21 01:00:00,37.0,"KNI-Topeka, Kansas, USA",39.0242,-95.7114,37.0,15.0,,,,4.0,17.4,93.0,1014.5,0.1,Good,9,Autumn,Mild
7359,2025-09-21 00:00:00,18.0,"St. Joseph, Missouri, USA",39.741667,-94.858333,18.0,14.0,,,,,17.0,93.0,1014.2,2.0,Good,9,Autumn,Mild
6281,2025-09-20 23:00:00,27.0,"Santa Fe Airport, New Mexico, USA",35.61975,-106.07968,13.0,,,,,27.2,13.0,54.0,1022.3,3.0,Good,9,Autumn,Mild
8395,2025-09-21 00:00:00,35.0,"Yuma Supersite, Arizona, USA",32.690277,-114.614441,33.0,35.0,,,,4.9,30.0,66.0,1009.1,2.0,Good,9,Autumn,Hot
317,2025-09-20 23:00:00,,"Anaheim-Loara School, Orange, California",33.83061,-117.9385,,,12.3,,6.7,,19.6,89.6,1013.2,0.5,Unknown,9,Autumn,Mild
191,2025-09-21 01:00:00,18.0,"San Antonio Northwest, San Antonio, Texas",29.51509,-98.620166,42.0,,2.7,,,17.6,26.9444,74.2,1012.3,4.3,Good,9,Autumn,Hot
184,2025-09-21 01:00:00,26.0,"Arlington Municipal Airport, fort Worth, Dallas, Texas",32.6563574,-97.0885849,,,3.8,,,25.6,27.8333,64.0,1014.5,5.4,Good,9,Autumn,Hot
266,2025-09-20 22:00:00,21.0,"Piru - Pacific, Ventura, California",34.40426,-118.80991,21.0,,,,,2.4,15.5,92.0,1012.5,0.2,Good,9,Autumn,Mild
5364,2025-09-20 23:00:00,54.0,"Pinehurst-Forest Service, Fresno, California",36.69731,-119.0188,54.0,,,,,20.0,11.6,93.5,1022.1,0.8,Moderate,9,Autumn,Mild
212,2025-09-21 00:00:00,10.0,"Hamshire, Beaumont, Texas",29.8639525,-94.3177999,10.0,,1.7,,,4.8,25.1667,92.0,1014.8,2.8,Good,9,Autumn,Hot
5954,2025-09-21 00:00:00,26.0,"Glendale, Maricopa, USA",33.56916667,-112.1913889,26.0,9.0,13.0,,4.5,23.3,28.3,48.0,1008.5,0.5,Good,9,Autumn,Hot
8200,2025-09-21 00:00:00,37.0,"Hillcrest HS, Missouri, USA",37.256069,-93.299692,37.0,10.0,,,,25.6,19.0,91.3,1016.1,3.7,Good,9,Autumn,Mild
260,2025-09-19 10:00:00,34.0,"Goleta-Fairview, Santa Barbara, California",34.44551,-119.82845,34.0,15.0,,,,13.6,21.6,94.5,1012.8,0.2,Good,9,Autumn,Mild
9183,2025-09-21 01:00:00,13.0,"Hospital, Huichapan, Hidalgo, Mexico",20.37511111,-99.65444444,13.0,,8.1,7.4,4.4,9.6,15.0,87.0,1027.0,2.0,Good,9,Autumn,Mild
6519,2025-09-21 01:00:00,21.0,"Westlake site, Louisiana, USA",30.262347,-93.284906,21.0,10.0,3.0,1.0,,15.0,26.4,97.0,1015.6,2.0,Good,9,Autumn,Hot
218,2025-09-21 01:00:00,21.0,"Austin Northwest, Austin, Texas",30.3544356,-97.7602554,42.0,,1.6,0.3,,20.8,28.8333,78.5,1015.0,6.3,Good,9,Autumn,Hot
5950,2025-09-21 00:00:00,31.0,"Tempe, Maricopa, USA",33.41111111,-111.9347222,31.0,17.0,,,,14.5,31.1,43.0,1008.1,0.2,Good,9,Autumn,Hot
5962,2025-09-21 00:00:00,14.0,"Coachline, Pima County, USA",32.380816,-111.127157,13.0,19.0,1.7,0.3,2.1,13.6,27.2,52.0,1013.6,0.7,Good,9,Autumn,Hot
10177,2025-09-21 01:00:00,57.0,"Cleveland, Mississippi, USA",33.750833,-90.734167,57.0,,,,,33.6,22.2,79.6,1014.8,0.2,Moderate,9,Autumn,Mild
10170,2025-09-21 01:00:00,28.0,"Iron, Utah",37.7854715,-113.1918021,14.0,,1.9,,,28.1,17.8278,50.0,,1.2,Good,9,Autumn,Mild
8282,2025-09-21 01:00:00,53.0,"S. Pedro, Nuevo Leon, Mexico",25.6573447,-100.4017501,53.0,34.0,11.5,3.9,2.0,16.0,23.3,1.0,1014.6,2.0,Moderate,9,Autumn,Mild
6513,2025-09-21 01:00:00,36.0,"Baton Rouge Capitol site, Louisiana, USA",30.46198,-91.17922,36.0,7.0,8.3,0.2,2.2,21.6,24.8,83.0,29.57,1.0,Good,9,Autumn,Mild
6517,2025-09-21 01:00:00,54.0,"Monroe Airport site, Louisiana, USA",32.509789,-92.04605,54.0,,,,,16.0,23.0,83.0,1016.2,1.5,Moderate,9,Autumn,Mild
5958,2025-09-21 00:00:00,10.0,"Green Valley, Pima County, USA",31.87952,-110.99644,5.0,6.0,1.7,,2.1,10.4,24.4,67.2,1015.7,2.2,Good,9,Autumn,Mild
7381,2025-09-21 01:00:00,18.0,"Sprngdle, Arkansas, USA",36.1797,-94.1167,18.0,,,,,22.4,19.3,96.0,1017.9,0.7,Good,9,Autumn,Mild
9624,2025-09-20 23:00:00,19.0,"South Valley, New Mexico, USA",35.0186,-106.651901,13.0,15.0,7.6,,3.4,19.2,17.0,45.0,1020.6,3.0,Good,9,Autumn,Mild
6571,2025-09-21 00:00:00,88.0,"Atemajac, Jalisco, Mexico",20.71818028,-103.3554914,88.0,13.0,10.6,2.5,6.3,24.9,20.0,88.0,1022.3,2.0,Moderate,9,Autumn,Mild
6574,2025-09-21 01:00:00,72.0,"Santa Fe, Jalisco, Mexico",20.528912,-103.377146,72.0,41.0,20.7,2.5,9.7,13.9,20.0,88.0,1022.3,2.0,Moderate,9,Autumn,Mild
220,2025-09-21 00:00:00,42.0,"Isla Blanca Park, Harlingen, Texas",26.0696153,-97.1621996,42.0,,,,,,28.6667,82.0,1012.2,9.4,Good,9,Autumn,Hot
6516,2025-09-21 01:00:00,41.0,"Northshore site, Madisonville, Louisiana, USA",30.429381,-90.199678,41.0,16.0,15.3,,1.2,10.4,22.2,91.0,1015.9,1.5,Good,9,Autumn,Mild
183,2025-09-21 00:00:00,67.0,"Kaufman, fort Worth, Dallas, Texas",32.5649518,-96.3176773,67.0,,2.8,0.3,,21.6,25.5,75.3,1014.8,1.5,Moderate,9,Autumn,Hot
7355,2025-09-21 00:00:00,11.0,"Liberty, Missouri, USA",39.303056,-94.376389,10.0,,,,,11.2,17.0,100.0,1014.5,0.5,Good,9,Autumn,Mild
10166,2025-09-20 23:00:00,21.0,"Guanajuato Universidad Gto Sede Belen, Mexico",21.01758333,-101.2573611,21.0,,,,,,17.2,82.0,1015.1,0.5,Good,9,Autumn,Mild
9165,2025-09-21 00:00:00,25.0,"Tecnológico de Tepic, Tepic, Nayarit, Mexico",21.47817778,-104.8677417,25.0,10.0,,,,23.7,28.0,83.0,1011.8,1.0,Good,9,Autumn,Hot
246,2025-09-20 23:00:00,22.0,"Santa Clarita-Placerita, Los Angeles",34.38337,-118.52839,22.0,,10.0,,1.2,7.3,17.7,78.4,1014.2,0.2,Good,9,Autumn,Mild
281,2025-09-20 23:00:00,55.0,"Hanford-S Irwin Street, Kings, California",36.31572,-119.64323,55.0,35.0,,,,16.0,24.0,73.0,1012.8,2.0,Moderate,9,Autumn,Mild
9521,2025-09-21 01:00:00,40.0,"Jerseyvl, Illinois, USA",39.101439,-90.344494,40.0,,,,,10.4,17.3,97.6,1014.4,1.5,Good,9,Autumn,Mild
4463,2025-09-21 01:00:00,22.0,"Washington, Utah",37.179,-113.3052,17.0,,1.9,,,22.4,22.4722,38.0,1019.5,0.8,Good,9,Autumn,Mild
12858,2025-09-21 01:00:00,28.0,"Enoch, Iron, Utah",37.74733868,-113.0555154,14.0,,1.9,,,28.1,10.0,58.2,,1.2,Good,9,Autumn,Mild
7928,2025-09-21 01:00:00,69.0,"Hinds CC, Mississippi, USA",32.346905,-90.225928,69.0,,,,,15.2,23.0,88.0,1016.5,4.1,Moderate,9,Autumn,Mild
6323,2025-09-20 23:00:00,30.0,"I-25 Denver, Colorado, USA",39.732146,-105.015317,30.0,16.0,10.1,0.6,5.0,9.0,17.7778,68.7,1019.0,2.0,Good,9,Autumn,Mild
8881,2025-09-20 23:00:00,30.0,"T-21, Mexico",21.108664,-101.688614,30.0,15.0,,4.7,18.8,,20.0,64.0,1025.0,3.0,Good,9,Autumn,Mild
9171,2025-09-21 01:00:00,,"Secretaría de Medio Ambiente, Aguascalientes, Mexico",21.84639167,-102.2884306,59.0,1.0,7.3,0.1,,,16.1,85.5,,1.5,Unknown,9,Autumn,Mild
8592,2025-09-20 23:00:00,55.0,"Otay Mesa - Donovan Correctional Facility, San Diego, California",32.57944,-116.92944,55.0,35.0,,,,18.4,18.8,88.0,1013.8,1.5,Moderate,9,Autumn,Mild
249,2025-09-20 22:00:00,42.0,"Lake Elsinore-W Flint Street, Riverside",33.67653,-117.33104,42.0,22.0,7.5,,3.4,20.8,20.2,66.5,1011.7,2.5,Good,9,Autumn,Mild
5365,2025-09-20 23:00:00,48.0,"Springville-Forest Service, Tulare, California",36.1344,-118.811,48.0,,,,,12.8,17.2,64.2,1014.1,0.1,Good,9,Autumn,Mild
8011,2025-09-21 01:00:00,12.0,"Museo del Rehilete, Hgo, Mexico",20.07687,-98.77799,12.0,8.0,11.5,1.5,2.8,11.3,24.0,94.0,1016.2,1.0,Good,9,Autumn,Mild
207,2025-09-20 23:00:00,61.0,"Ascarate Park SE, El Paso, Texas",31.7467425,-106.4027843,61.0,,,,,,24.7,53.0,898.1,1.5,Moderate,9,Autumn,Mild
211,2025-09-21 01:00:00,15.0,"Dona Park, Corpus Christi, Texas",27.8118142,-97.4657005,15.0,8.0,,,,,28.3333,78.0,1013.8,5.3,Good,9,Autumn,Hot
197,2025-09-21 01:00:00,26.0,"Galveston 99th Street, Houston, Texas",29.2544736,-94.8612886,10.0,,0.1,,,25.6,28.5556,78.0,1014.8,10.2,Good,9,Autumn,Hot
177,2025-09-21 00:00:00,18.0,"Baytown, Houston, Texas",29.7706975,-95.0312316,18.0,,,,,,27.6667,90.5,1015.0,1.6,Good,9,Autumn,Hot
201,2025-09-21 01:00:00,23.0,"Clinton, Houston, Texas",29.7337263,-95.2575931,23.0,12.0,6.9,,2.3,15.2,27.8889,74.3,1014.2,4.1,Good,9,Autumn,Hot
9153,2025-09-19 09:00:00,,"Texarkana New Boston, Bowie, Texas",33.436111,-94.07778,73.0,,,,,,22.5,76.0,1014.9,1.5,Unknown,9,Autumn,Mild
6275,2025-09-20 23:00:00,26.0,"Carlsbad, New Mexico, USA",32.38,-104.26222,,,1.0,,,25.6,22.0,64.0,1015.5,2.0,Good,9,Autumn,Mild
11775,2025-09-20 23:00:00,18.0,"Purísima Del Rincón Purísima Del Rincón, Mexico",21.04023889,-101.8762833,,18.0,,,,5.1,20.0,64.0,1025.0,3.0,Good,9,Autumn,Mild
210,2025-09-21 01:00:00,16.0,"Mission, Harlingen, Texas",26.2262097,-98.291069,16.0,12.0,,,,12.1,28.0,88.5,1014.0,4.9,Good,9,Autumn,Hot
6319,2025-09-20 23:00:00,9.0,"Delta, Colorado, USA",38.739213,-108.073118,9.0,8.0,,,,10.0,17.0,58.0,1021.6,1.8,Good,9,Autumn,Mild
7368,2025-09-21 01:00:00,26.0,"Burneyville, Oklahoma, USA",33.8825,-97.275803,,,,,,26.4,24.4,75.0,1015.2,2.0,Good,9,Autumn,Mild
6273,2025-09-20 23:00:00,16.0,"Taos Fire Station, New Mexico, USA",36.38333,-105.58333,16.0,,,,,,9.7,73.5,1011.1,0.2,Good,9,Autumn,Cold
7382,2025-09-20 22:00:00,70.0,"Marion, Arkansas, USA",35.1967,-90.1911,70.0,,,,,24.8,24.1,74.2,1016.3,1.0,Moderate,9,Autumn,Mild
275,2025-09-20 23:00:00,34.0,"Fresno - Drummond Street, Fresno, California",36.70556,-119.74139,,27.0,4.7,,,34.4,24.0,60.0,1013.2,3.6,Good,9,Autumn,Mild
185,2025-09-21 00:00:00,30.0,"Haws Athletic Center, fort Worth, Dallas, Texas",32.7591432,-97.3423337,30.0,,,,,,25.8,65.5,1017.7,0.2,Good,9,Autumn,Hot
7476,2025-09-21 01:00:00,33.0,"Stilwell Castnet & Ncore, Oklahoma, USA",35.750599,-94.669701,33.0,13.0,,0.9,2.3,25.6,22.2,84.0,1016.0,2.0,Good,9,Autumn,Mild
13146,2025-09-21 01:00:00,34.0,"Chanute, Kansas, USA",37.67696,-95.47594,34.0,12.0,3.0,0.3,,21.6,19.0,93.0,1014.5,3.0,Good,9,Autumn,Mild
6511,2025-09-20 23:00:00,45.0,"Facultad De Medicina, Mexico",21.133545,-101.679543,45.0,16.0,,8.8,,16.6,20.0,64.0,1025.0,3.0,Good,9,Autumn,Mild
12846,2025-09-21 01:00:00,27.0,"French Settlement site, Louisiana, USA",30.315175,-90.811276,27.0,7.0,2.2,0.2,2.2,2.4,22.2,93.0,1016.7,1.0,Good,9,Autumn,Mild
13065,2025-09-20 23:00:00,20.0,"Joshua Tree NP - Cottonwood #2, Riverside, California",33.74724,-115.82012,,,,,,20.0,35.3,32.3,1008.4,2.0,Good,9,Autumn,Hot
267,2025-09-20 23:00:00,25.0,"Simi Valley - Cochran Street, Ventura, California",34.2764,-118.68375,25.0,7.0,,,,8.8,17.2,88.0,1097.9,1.2,Good,9,Autumn,Mild
9605,2025-09-20 23:00:00,76.0,"Corcoran-Patterson Avenue, Kings, California",36.1022,-119.56564,76.0,28.0,,,,,24.0,73.0,1012.8,2.0,Moderate,9,Autumn,Mild
6515,2025-09-21 01:00:00,31.0,"Lafayette USGS site, Louisiana, USA",30.2175,-92.051389,31.0,3.0,,,,16.8,24.0,88.0,1016.2,1.5,Good,9,Autumn,Mild
8885,2025-09-21 01:00:00,40.0,"Healdton, Oklahoma, USA",34.256901,-97.474197,40.0,17.0,,,,,22.7,86.0,1012.8,,Good,9,Autumn,Mild
7365,2025-09-21 01:00:00,46.0,"Moore, Oklahoma, USA",35.32,-97.4883,46.0,16.0,,,,29.6,21.3,79.0,1015.2,2.9,Good,9,Autumn,Mild
252,2025-09-20 23:00:00,57.0,"Rubidoux - Mission Blvd, Riverside",33.99952,-117.41595,57.0,19.0,7.3,0.5,3.4,20.8,20.0,83.2,1015.1,0.7,Moderate,9,Autumn,Mild
10949,2025-09-21 01:00:00,46.0,"Pueblo Serena, Monterrey, Nuevo León, Mexico",25.57527778,-100.2491667,46.0,27.0,8.8,2.2,7.4,11.2,5.5,89.5,1037.3,4.0,Good,9,Autumn,Cold
8390,2025-09-21 00:00:00,5.0,"Douglas Red Cross, Arizona, USA",31.3492,-109.539683,,5.0,,,,,18.4,73.1,1022.4,2.1,Good,9,Autumn,Mild
